nom_commercial,ar,quartier,etoiles,nb_chambres,lat,long
HÔTEL LOUVRE MONTANA,1,Louvre,4,25,48.86448,2.331768
HÔTEL LOUVRE RICHELIEU,1,Louvre,3,13,48.866477,2.337195
RELAIS DES HALLES,1,Louvre,3,19,48.863213,2.34891
HÔTEL OPÉRA MAINTENON,1,Louvre,2,19,48.866795,2.335859
HÔTEL SNOB,1,Louvre,4,24,48.862409,2.349543
HÔTEL MELIÀ VENDÔME,1,Louvre,4,83,48.866803,2.325771
HÔTEL CASTILLE PARIS,1,Louvre,5,108,48.868719,2.327226
HÔTEL LOUVRE PIEMONT,1,Louvre,3,20,48.864846,2.336507
BEST WESTERN PREMIER LOUVRE SAINT HONORÉ,1,Louvre,4,37,48.861753,2.340663
HÔTEL LOUVRE RIVOLI,1,Louvre,3,32,48.858432,2.346484
HÔTEL MANSART,1,Louvre,4,57,48.868507,2.329823
HÔTEL BRIGHTON,1,Louvre,4,61,48.864846,2.329027
HÔTEL DU CONTINENT,1,Louvre,3,25,48.866326,2.326858
HÔTEL CAMBON,1,Louvre,4,40,48.866395,2.325239
THE WESTIN PARIS VENDÔME,1,Louvre,4,428,48.865715,2.327482
HÔTEL FLOR RIVOLI,1,Louvre,2,20,48.859178,2.345177
MAISON ALBAR HÔTEL PARIS CÉLINE,1,Louvre,5,60,48.860751,2.344627
HÔTEL MOLIÈRE,1,Louvre,4,32,48.865385,2.336211
HÔTEL THÉRÈSE,1,Louvre,4,43,48.865848,2.336134
HÔTEL NOLINSKI PARIS,1,Louvre,5,45,48.865471,2.334758
HÔTEL LA TAMISE,1,Louvre,4,19,48.864856,2.329545
HÔTEL RÉGINA,1,Louvre,5,99,48.863961,2.332599
HÔTEL LOUVRE BONS ENFANTS,1,Louvre,3,33,48.862801,2.338203
HÔTEL CRAYON,1,Louvre,3,26,48.863976,2.341443
HÔTEL COSTES,1,Louvre,5,82,48.866845,2.32783
GOLDEN TULIP WASHINGTON OPÉRA,1,Louvre,4,36,48.866261,2.337249
MANDARIN ORIENTAL PARIS,1,Louvre,5,138,48.867082,2.327129
DRAWING HÔTEL,1,Louvre,4,48,48.864478,2.336164
HÔTEL CRAYON ROUGE,1,Louvre,4,17,48.864487,2.340447
HÔTEL NOVOTEL PARIS LES HALLES,1,Louvre,4,285,48.86073,2.346533
HÔTEL RENAISSANCE PARIS VENDÔME,1,Louvre,5,97,48.86544,2.329576
HÔTEL BEST WESTERN PARIS LOUVRE OPÉRA,1,Louvre,3,20,48.866569,2.335026
HÔTEL LE MEURICE,1,Louvre,5,161,48.865159,2.328065
HÔTEL DE LA PLACE DU LOUVRE,1,Louvre,3,20,48.85927,2.34089
HÔTEL LONDRES SAINT-HONORÉ,1,Louvre,2,28,48.865055,2.331972
HÔTEL DU LOUVRE,1,Louvre,5,177,48.863888,2.335063
HÔTEL LE RELAIS SAINT HONORÉ,1,Louvre,3,17,48.865193,2.331565
GRAND HÔTEL DU PALAIS ROYAL,1,Louvre,5,68,48.863111,2.337787
HÔTEL LE PRADEY,1,Louvre,4,28,48.864444,2.331542
HÔTEL MAYFAIR PARIS,1,Louvre,4,47,48.866092,2.326181
HÔTEL ODYSSEY,1,Louvre,3,29,48.865038,2.341705
HÔTEL DES DUCS D'ANJOU,1,Louvre,4,38,48.859823,2.347111
GRAND HÔTEL DECHAMPAIGNE,1,Louvre,3,44,48.858819,2.34523
HÔTEL SAINT HONORÉ,1,Louvre,3,24,48.861209,2.343611
TONIC HÔTEL DU LOUVRE,1,Louvre,3,35,48.860618,2.343779
HÔTEL PRINCE ALBERT LOUVRE,1,Louvre,3,30,48.865995,2.331574
HÔTEL DES TUILERIES,1,Louvre,4,24,48.866107,2.331536
HÔTEL LE BURGUNDY,1,Louvre,5,59,48.868001,2.325779
HÔTEL AGORA,1,Louvre,2,30,48.861374,2.348636
HÔTEL BRITANNIQUE,1,Louvre,3,39,48.858255,2.346361
HÔTEL OPÉRA RICHEPANSE,1,Louvre,4,39,48.868693,2.325211
HÔTEL DUMINY VENDÔME,1,Louvre,4,78,48.865454,2.329216
SAINT ROCH HÔTEL,1,Louvre,2,22,48.865739,2.332396
HÔTEL ROYAL SAINT HONORÉ,1,Louvre,4,72,48.865836,2.330026
SAINT JAMES ALBANY HÔTEL SPA,1,Louvre,4,186,48.864269,2.330796
HÔTEL RITZ PARIS,1,Louvre,5,159,48.867948,2.32888
HÔTEL LE RELAIS DU LOUVRE,1,Louvre,4,21,48.859259,2.340989
HÔTEL VICTORIA CHÂTELET,1,Louvre,3,24,48.85798,2.346671
HÔTEL LOUVRE SAINTE-ANNE,1,Louvre,3,20,48.866449,2.335683
LE ROCH HÔTEL & SPA,1,Louvre,5,37,48.866178,2.332869
HOTEL HANDSOME,1,Louvre,3,22,48.862213,2.348831
HÔTEL DE VENDÔME,1,Louvre,5,29,48.867022,2.328725
HÔTEL DU CYGNE,1,Louvre,2,20,48.863145,2.349403
HÔTEL LUMEN PARIS LOUVRE,1,Louvre,4,38,48.86524,2.333034
TIMHOTEL LE LOUVRE,1,Louvre,3,56,48.862458,2.339435
PAVILLON LOUVRE RIVOLI,1,Louvre,3,29,48.865226,2.336218
HÔTEL ICÔNE,2,Bourse,3,30,48.871079,2.338985
HÔTEL ÉTATS-UNIS OPÉRA,2,Bourse,3,45,48.869045,2.333653
HÔTEL BABY,2,Bourse,2,22,48.86894,2.351569
HÔTEL WESTMINSTER,2,Bourse,4,102,48.869325,2.331098
HÔTEL EDOUARD VII,2,Bourse,4,69,48.868344,2.333066
HÔTEL LA MAISON FAVART,2,Bourse,4,39,48.870766,2.337342
BEST WESTERN LES THÉÂTRES,2,Bourse,4,38,48.869587,2.351703
HÔTEL VIVIENNE,2,Bourse,2,44,48.871081,2.341374
HÔTEL TRYP FRANÇOIS,2,Bourse,4,71,48.871392,2.342629
HÔTEL BELLAN,2,Bourse,2,17,48.866638,2.34574
HÔTEL VICTOIRES OPÉRA,2,Bourse,4,24,48.864904,2.346922
HÔTEL LE CLÉRY,2,Bourse,3,21,48.869984,2.350434
HÔTEL ASCOT OPERA,2,Bourse,3,36,48.868265,2.335253
TIMHOTEL PALAIS ROYAL,2,Bourse,3,46,48.866399,2.340008
HÔTEL SAINT-MARC,2,Bourse,4,26,48.870814,2.338224
HÔTEL ÎLE DE FRANCE OPÉRA,2,Bourse,3,19,48.868934,2.334702
HÔTEL BACHAUMONT,2,Bourse,4,49,48.866218,2.344829
HÔTEL MERCURE PARIS OPÉRA LOUVRE,2,Bourse,4,106,48.871144,2.339553
HÔTEL ROYAL ABOUKIR,2,Bourse,3,35,48.868548,2.349849
HÔTEL VOLNEY OPÉRA,2,Bourse,3,29,48.869794,2.330212
HÔTEL CYRNOS,2,Bourse,3,23,48.869728,2.343029
HÔTEL PARK HYATT PARIS VENDÔME,2,Bourse,5,153,48.86881,2.330583
HÔTEL DE NOAILLES,2,Bourse,4,56,48.869591,2.334636
HÔTEL STENDHAL PLACE VENDÔME PARIS MGALLERY BY SOFITEL,2,Bourse,4,20,48.868103,2.331293
HÔTEL SQUARE LOUVOIS,2,Bourse,4,50,48.868429,2.336788
HÔTEL CHOISEUL OPÉRA,2,Bourse,3,46,48.869108,2.332435
HÔTEL LAUTREC OPÉRA,2,Bourse,3,59,48.871206,2.33836
HÔTEL BONNE NOUVELLE,2,Bourse,3,21,48.86932,2.349507
HÔTEL MALTE OPÉRA,2,Bourse,4,64,48.867153,2.337554
HÔTEL FRANCE D'ANTIN OPÉRA,2,Bourse,4,30,48.869283,2.333936
HÔTEL TIQUETONNE,2,Bourse,1,45,48.864469,2.349564
BEST WESTERN HÔTEL GAILLON OPÉRA,2,Bourse,3,26,48.868437,2.334066
LYRIC HÔTEL PARIS,2,Bourse,4,47,48.869001,2.336788
HÔTEL GRAMONT OPERA,2,Bourse,3,25,48.870557,2.336979
HÔTEL LOUVRE MARSOLLIER OPÉRA,2,Bourse,3,28,48.868162,2.334656
123 SÉBASTOPOL HÔTEL,2,Bourse,4,63,48.867618,2.353071
HÔTEL DAUNOU OPERA,2,Bourse,3,50,48.869349,2.332176
HÔTEL BAUDELAIRE OPÉRA,2,Bourse,3,29,48.86799,2.336257
HÔTEL PARIS FRANCE,3,Temple,3,46,48.86637,2.360545
HÔTEL DE ROUBAIX,3,Temple,2,53,48.865483,2.352849
HÔTEL LA CHAMBRE DU MARAIS,3,Temple,4,19,48.863584,2.360857
HÔTEL JACQUES DE MOLAY,3,Temple,3,23,48.863443,2.360871
VILLA BEAUMARCHAIS,3,Temple,4,50,48.859069,2.366764
HÔTEL DU PLAT D'ÉTAIN,3,Temple,3,46,48.868506,2.355786
HÔTEL AMÉRICAIN,3,Temple,2,36,48.864778,2.364875
MY HÔTEL IN FRANCE LE MARAIS,3,Temple,3,38,48.861564,2.364989
HÔTEL DU VIEUX SAULE,3,Temple,3,27,48.863349,2.362317
HÔTEL PARIS BRUXELLES,3,Temple,2,36,48.867346,2.362421
AUSTIN'S ARTS ET MÉTIERS HÔTEL,3,Temple,3,29,48.865939,2.357081
HÔTEL ÉCOLE CENTRALE,3,Temple,3,22,48.865098,2.356556
LITTLE PALACE HOTEL,3,Temple,4,53,48.867509,2.35399
HÔTEL MESLAY RÉPUBLIQUE,3,Temple,3,39,48.86725,2.362241
LES TOURNELLES,3,Temple,3,24,48.856956,2.364548
MURANO PARIS,3,Temple,4,51,48.863964,2.365944
HÔTEL LE PAVILLON DE LA REINE,3,Temple,4,54,48.856216,2.365979
HÔTEL LE RELAIS DU MARAIS,3,Temple,3,37,48.866443,2.360864
HÔTEL DU PETIT MOULIN,3,Temple,4,17,48.861638,2.36206
HÔTEL BEST WESTERN FRANCE EUROPE,3,Temple,4,43,48.868742,2.354167
HÔTELS LES BAINS,3,Temple,5,39,48.863922,2.351998
HÔTEL GEORGETTE,3,Temple,4,19,48.863245,2.352683
HOTEL DE LUTÈCE,4,Hôtel-de-Ville,3,23,48.852464,2.354637
HÔTEL LE COMPOSTELLE,4,Hôtel-de-Ville,3,25,48.856511,2.357058
GRAND HÔTEL MALHER,4,Hôtel-de-Ville,3,28,48.855689,2.361138
HÔTEL DU VIEUX MARAIS,4,Hôtel-de-Ville,3,29,48.859111,2.355399
HÔTEL FRANCE LOUVRE,4,Hôtel-de-Ville,3,34,48.856499,2.356182
HÔTEL JEANNE D'ARC MARAIS,4,Hôtel-de-Ville,3,34,48.855577,2.363218
HÔTEL POINTE RIVOLI,4,Hôtel-de-Ville,2,23,48.855161,2.360218
HÔTEL TURENNE LE MARAIS,4,Hôtel-de-Ville,3,41,48.855099,2.363443
HÔTEL BEAUBOURG,4,Hôtel-de-Ville,3,28,48.860143,2.353431
HÔTEL DE JOBO,4,Hôtel-de-Ville,4,24,48.855505,2.362096
HÔTEL DUPOND-SMITH,4,Hôtel-de-Ville,5,8,48.857898,2.357198
D'WIN,4,Hôtel-de-Ville,2,33,48.858689,2.353591
HÔTEL DE NICE,4,Hôtel-de-Ville,3,23,48.856594,2.355767
HÔTEL DU JEU DE PAUME,4,Hôtel-de-Ville,4,30,48.852031,2.356132
HÔTEL BASTILLE SPERIA,4,Hôtel-de-Ville,3,42,48.853938,2.367519
HÔTEL DU LOIRET,4,Hôtel-de-Ville,3,25,48.856928,2.355259
HÔTEL GORALSKA PARIS BASTILLE,4,Hôtel-de-Ville,4,12,48.848261,2.365873
HÔTEL PARIS RIVOLI,4,Hôtel-de-Ville,3,29,48.855991,2.357341
HÔTEL SANSONNET,4,Hôtel-de-Ville,3,18,48.858134,2.352733
HÔTEL DE LA HERSE D'OR,4,Hôtel-de-Ville,2,29,48.853706,2.366204
HÔTEL CARON,4,Hôtel-de-Ville,3,18,48.855063,2.362536
SULLY HÔTEL,4,Hôtel-de-Ville,1,22,48.854223,2.364289
HÔTEL DES DEUX ILES,4,Hôtel-de-Ville,3,17,48.852348,2.354971
HÔTEL ANDRÉA RIVOLI,4,Hôtel-de-Ville,3,32,48.858183,2.35029
VILLA MAZARIN,4,Hôtel-de-Ville,4,29,48.857351,2.354246
HÔTEL DU BOURG-TIBOURG,4,Hôtel-de-Ville,4,30,48.857214,2.355933
HÔTEL SAINT-LOUIS EN L'ISLE,4,Hôtel-de-Ville,3,20,48.852619,2.354221
HÔTEL CASTEX,4,Hôtel-de-Ville,3,30,48.852643,2.366049
HÔTEL DUO PARIS,4,Hôtel-de-Ville,4,58,48.858093,2.352974
HÔTEL DU 7ÈME ART,4,Hôtel-de-Ville,2,23,48.853481,2.361815
HÔTEL GARANCE CAROFFTEL GOBELINS,5,Panthéon,3,22,48.837419,2.351104
HÔTEL HENRI IV RIVE GAUCHE,5,Panthéon,3,23,48.851814,2.346192
HÔTEL ABBATIAL SAINT-GERMAIN,5,Panthéon,3,43,48.849732,2.350613
HÔTEL OBSERVATOIRE LUXEMBOURG,5,Panthéon,3,41,48.84367,2.339053
TIMHOTEL JARDIN DES PLANTES,5,Panthéon,3,33,48.843923,2.354702
HÔTEL MELIA COLBERT,5,Panthéon,4,39,48.851554,2.348534
HÔTEL LA LANTERNE,5,Panthéon,4,27,48.848934,2.348528
HÔTEL EXCELSIOR LATIN,5,Panthéon,3,65,48.84815,2.341975
HÔTEL CENTRAL SAINT GERMAIN,5,Panthéon,3,35,48.849797,2.342996
HÔTEL LE PETIT PARIS,5,Panthéon,4,20,48.845243,2.342425
HÔTEL DE LA SORBONNE,5,Panthéon,3,38,48.848111,2.342513
HÔTEL DU MONT BLANC,5,Panthéon,2,42,48.8532,2.345023
HÔTEL SUNNY,5,Panthéon,2,36,48.837568,2.346755
HOTEL LE LAPIN BLANC,5,Panthéon,4,27,48.849204,2.342216
HÔTEL ELYSA-LUXEMBOURG,5,Panthéon,3,32,48.846205,2.340938
HÔTEL DU PANTHÉON,5,Panthéon,4,35,48.845755,2.344855
HOTEL DE SENLIS,5,Panthéon,2,31,48.846284,2.342607
HÔTEL DES CARMES,5,Panthéon,2,30,48.849189,2.347702
HÔTEL NOTRE DAME,5,Panthéon,3,26,48.853055,2.346536
GRAND HÔTEL SAINT MICHEL,5,Panthéon,4,47,48.84786,2.342226
SELECT HÔTEL,5,Panthéon,4,66,48.848402,2.342579
HÔTEL DES GRANDS HOMMES,5,Panthéon,3,30,48.845716,2.345031
HÔTEL DE FRANCE QUARTIER LATIN,5,Panthéon,2,30,48.839387,2.350954
HOTEL ROYAL SAINT MICHEL,5,Panthéon,4,39,48.852836,2.34408
HÔTEL DES 3 COLLÈGES,5,Panthéon,3,44,48.847908,2.342368
HÔTEL DE SUEZ,5,Panthéon,2,49,48.849798,2.34258
HÔTEL CUJAS PANTHÉON,5,Panthéon,2,48,48.848049,2.342146
HÔTEL BEAUVOIR,5,Panthéon,3,29,48.83989,2.337383
HÔTEL BEST WESTERN LE JARDIN DE CLUNY,5,Panthéon,4,39,48.849821,2.346823
HÔTEL CLAUDE BERNARD,5,Panthéon,3,37,48.848965,2.346808
HÔTEL DU LEVANT,5,Panthéon,3,46,48.852259,2.344363
HÔTEL FAMILIA,5,Panthéon,2,30,48.847677,2.351601
VILLA PANTHÉON,5,Panthéon,4,59,48.848902,2.347046
HÔTEL MERCURE PARIS NOTRE DAME SAINT GERMAIN DES PRÉS,5,Panthéon,4,47,48.850314,2.345009
HÔTEL DES MINES,5,Panthéon,2,50,48.842695,2.338514
HÔTEL LE HOME LATIN,5,Panthéon,3,54,48.849946,2.346241
HÔTEL LIBERTEL AUSTERLITZ JARDIN DES PLANTES,5,Panthéon,3,51,48.842373,2.363255
THE FIVE HÔTEL,5,Panthéon,3,24,48.837799,2.34638
HÔTEL SEVEN,5,Panthéon,4,35,48.838978,2.345658
HÔTEL DES NATIONS SAINT GERMAIN,5,Panthéon,3,36,48.844809,2.352131
HÔTEL DES ARÈNES,5,Panthéon,3,52,48.844906,2.352319
HÔTEL LE RELAIS SAINT-JACQUES,5,Panthéon,4,22,48.843046,2.342282
HÔTEL DU BRÉSIL,5,Panthéon,2,29,48.846442,2.341331
HÔTEL SAINT JACQUES,5,Panthéon,3,36,48.848745,2.34763
HÔTEL EUROPE SAINT SÉVERIN,5,Panthéon,3,59,48.85271,2.344274
HÔTEL DEVILLAS,5,Panthéon,3,40,48.839998,2.361275
HÔTEL MINERVE,5,Panthéon,3,54,48.847715,2.351468
HÔTEL SAINT CHRISTOPHE,5,Panthéon,3,31,48.843662,2.352584
HÔTEL MERCURE PARIS LA SORBONNE SAINT-GERMAIN DES PRÈS,5,Panthéon,4,47,48.849319,2.343175
HÔTEL ANDRÉ LATIN,5,Panthéon,3,69,48.842738,2.342676
HÔTEL CLUNY SORBONNE,5,Panthéon,2,23,48.847984,2.342433
LES RIVES DE NOTRE-DAME,5,Panthéon,4,10,48.853266,2.345759
HÔTEL PARC SAINT SEVERIN,5,Panthéon,4,27,48.851819,2.344781
HÔTEL ATMOSPHÈRES,5,Panthéon,4,56,48.848633,2.348043
HÔTEL RÉSIDENCE HENRI IV,5,Panthéon,4,13,48.848167,2.34908
HÔTEL CLUNY SQUARE,5,Panthéon,3,30,48.851536,2.343466
HÔTEL SEROTEL LUTÈCE,5,Panthéon,3,41,48.84004,2.345863
HÔTEL LES JARDINS DU LUXEMBOURG,5,Panthéon,3,26,48.845568,2.340903
QUALYS HÔTEL APOLONIA MOUFFETARD,5,Panthéon,3,42,48.843222,2.349447
BESTWESTERN QUARTIER LATIN,5,Panthéon,3,33,48.843604,2.352424
HÔTEL AU ROYAL CARDINAL,5,Panthéon,2,36,48.847408,2.352397
HÔTEL AGORA SAINT GERMAIN,5,Panthéon,3,39,48.848733,2.349575
HÔTEL DE NOTRE DAME,5,Panthéon,3,34,48.850379,2.349402
HÔTEL MARIGNAN,5,Panthéon,1,30,48.849879,2.346522
HÔTEL MONGE,5,Panthéon,4,30,48.844816,2.352436
HÔTEL VENDÔME SAINT-GERMAIN,5,Panthéon,2,32,48.847383,2.351483
HÔTEL ALBE SAINT-MICHEL,5,Panthéon,3,43,48.853081,2.344695
GRAND HÔTEL MODERNE,5,Panthéon,3,45,48.848691,2.347828
HÔTEL DU COLLÈGE DE FRANCE,5,Panthéon,2,29,48.849866,2.346109
HÔTEL LES BULLES DE PARIS,5,Panthéon,4,44,48.849082,2.347169
HÔTEL MICHELET ODÉON,6,Luxembourg,2,42,48.849761,2.338191
LE CLOS NOTRE-DAME,6,Luxembourg,3,16,48.853639,2.342935
GRAND HÔTEL DE L'UNIVERS,6,Luxembourg,3,33,48.853488,2.337883
HÔTEL DE FLEURIE,6,Luxembourg,3,29,48.852384,2.337521
HÔTEL D'AUBUSSON,6,Luxembourg,5,49,48.854762,2.33948
HÔTEL EUGÉNIE,6,Luxembourg,3,28,48.853295,2.341974
HÔTEL LUXEMBOURG PARC,6,Luxembourg,4,23,48.849135,2.334721
BEST WESTERN TRIANON RIVE GAUCHE,6,Luxembourg,4,110,48.84881,2.340934
HÔTEL SAINT-ANDRÉ DES ARTS,6,Luxembourg,1,31,48.853617,2.338954
HÔTEL SAINT PAUL,6,Luxembourg,4,31,48.849664,2.340167
HÔTEL TERMINUS MONTPARNASSE,6,Luxembourg,3,63,48.844298,2.323295
HÔTEL LUTETIA,6,Luxembourg,4,231,48.851213,2.327063
HÔTEL DANEMARK,6,Luxembourg,3,15,48.843407,2.329904
HÔTEL HOLIDAY INN PARIS SAINT GERMAIN DES PRÈS,6,Luxembourg,4,134,48.846793,2.325789
HÔTEL BELLOY SAINT GERMAIN,6,Luxembourg,4,50,48.850342,2.342235
HÔTEL DE SEINE,6,Luxembourg,3,30,48.854384,2.336786
HÔTEL ODEON SAINT GERMAIN,6,Luxembourg,4,27,48.851441,2.337479
HÔTEL DES DEUX CONTINENTS,6,Luxembourg,3,41,48.855272,2.334433
HÔTEL LE CLOS MÉDICIS,6,Luxembourg,3,38,48.84831,2.340611
HÔTEL PRINCE DE CONTI,6,Luxembourg,3,24,48.855675,2.338416
MILLÉSIME HÔTEL PARIS,6,Luxembourg,4,20,48.855079,2.335063
HÔTEL SAINT-PIERRE,6,Luxembourg,2,46,48.850662,2.342019
WELCOME HÔTEL,6,Luxembourg,2,29,48.853147,2.336892
HÔTEL LA PERLE,6,Luxembourg,3,39,48.852126,2.333656
HÔTEL ARTUS,6,Luxembourg,4,27,48.853465,2.33606
HÔTEL BONAPARTE,6,Luxembourg,3,29,48.851546,2.333006
HÔTEL NOVANOX,6,Luxembourg,3,27,48.840595,2.334461
HÔTEL LE RELAIS MEDICIS,6,Luxembourg,4,17,48.849792,2.339402
CRYSTAL HÔTEL,6,Luxembourg,3,26,48.854365,2.332732
BEST WESTERN HÔTEL ARAMIS SAINT-GERMAIN,6,Luxembourg,3,42,48.846697,2.326431
HÔTEL SAINTE-BEUVE,6,Luxembourg,4,22,48.843927,2.329479
HÔTEL DES ACADÉMIES ET DES ARTS,6,Luxembourg,4,20,48.842097,2.33041
HÔTEL SAINT-GERMAIN-DES-PRÉS,6,Luxembourg,3,30,48.855041,2.333719
HÔTEL DES MARRONNIERS,6,Luxembourg,3,36,48.855187,2.334686
HÔTEL PRINCE DE CONDÉ,6,Luxembourg,4,11,48.855601,2.336811
HÔTEL LA VILLA SAINT-GERMAIN-DES-PRÉS,6,Luxembourg,4,31,48.855374,2.334143
HÔTEL CLÉMENT,6,Luxembourg,2,28,48.852546,2.336182
L’HÔTEL,6,Luxembourg,5,20,48.856352,2.335238
ODÉON HÔTEL,6,Luxembourg,3,32,48.851439,2.338789
HÔTEL FONTAINES DU LUXEMBOURG,6,Luxembourg,3,30,48.849008,2.340068
HÔTEL BEL AMI,6,Luxembourg,5,108,48.854742,2.333051
HÔTEL D'ANGLETERRE - SAINT-GERMAIN-DES-PRÈS,6,Luxembourg,3,26,48.855817,2.333224
TONIC HÔTEL SAINT-GERMAIN,6,Luxembourg,3,13,48.8517,2.337409
HÔTEL DAUPHINE SAINT GERMAIN,6,Luxembourg,3,30,48.854429,2.339014
RELAIS HÔTEL DU VIEUX PARIS,6,Luxembourg,4,19,48.853892,2.342868
HÔTEL ESPRIT SAINT GERMAIN,6,Luxembourg,5,28,48.851455,2.336507
HÔTEL LA PARIZIENNE,6,Luxembourg,4,28,48.845082,2.320914
HÔTEL BAUME,6,Luxembourg,4,35,48.850174,2.339209
HÔTEL LEGEND,6,Luxembourg,4,38,48.84532,2.325484
HÔTEL ÉDOUARD VI,6,Luxembourg,3,33,48.844241,2.323452
HÔTEL DE SAINT GERMAIN,6,Luxembourg,2,30,48.852329,2.330731
HÔTEL ROYAL SAINT GERMAIN,6,Luxembourg,3,44,48.844934,2.32511
HÔTEL PERREYVE,6,Luxembourg,3,30,48.847132,2.331639
HÔTEL LE CHAPLAIN PARIS RIVE GAUCHE,6,Luxembourg,4,25,48.842711,2.330334
HÔTEL DE SÈVRES,6,Luxembourg,3,32,48.848277,2.324725
HÔTEL STANISLAS,6,Luxembourg,2,18,48.845042,2.328223
HÔTEL ATLANTIS SAINT GERMAIN DES PRÉS,6,Luxembourg,3,27,48.851406,2.332487
HÔTEL PAS DE CALAIS,6,Luxembourg,4,38,48.853755,2.330101
HÔTEL VICTOIRE ET GERMAIN,6,Luxembourg,4,17,48.8533,2.337938
HÔTEL DE BUCI,6,Luxembourg,4,24,48.853814,2.336688
VICTORIA PALACE HÔTEL,6,Luxembourg,5,62,48.845827,2.324361
HÔTEL SÈVRES SAINT-GERMAIN,6,Luxembourg,3,30,48.849311,2.324925
HÔTEL DU DANUBE SAINT-GERMAIN,6,Luxembourg,3,39,48.856282,2.331925
HÔTEL JEAN BART,6,Luxembourg,2,32,48.847627,2.331094
HÔTEL LE LITTRÉ,6,Luxembourg,4,90,48.845431,2.324086
HÔTEL LE PLACIDE,6,Luxembourg,4,11,48.849899,2.324315
HÔTEL LE RÉGENT,6,Luxembourg,3,25,48.853814,2.338675
HÔTEL LA BELLE JULIETTE,6,Luxembourg,4,45,48.84741,2.322331
HÔTEL MAYET,6,Luxembourg,3,23,48.84713,2.318561
HÔTEL HOLIDAY INN PARIS NOTRE DAME,6,Luxembourg,4,108,48.852769,2.342361
HÔTEL DE L'AVENIR,6,Luxembourg,3,34,48.846895,2.331673
HÔTEL RELAIS SAINT-SULPICE,6,Luxembourg,4,26,48.851017,2.335775
HÔTEL DU DRAGON,6,Luxembourg,2,28,48.852792,2.330333
BEST WESTERN HÔTEL LE MONTPARNASSE,6,Luxembourg,3,28,48.844981,2.321219
HÔTEL DELAVIGNE,6,Luxembourg,3,34,48.850625,2.339437
HÔTEL À LA VILLA DES ARTISTES,6,Luxembourg,3,55,48.842257,2.330807
HÔTEL LEFT BANK SAINT-GERMAIN,6,Luxembourg,3,31,48.85321,2.33865
HÔTEL RECAMIER,6,Luxembourg,4,24,48.850398,2.33442
HÔTEL LE SÉNAT,6,Luxembourg,4,41,48.84907,2.339713
HÔTEL LOUIS II,6,Luxembourg,4,22,48.851585,2.338123
HÔTEL DA VINCI,6,Luxembourg,4,24,48.856595,2.332009
HÔTEL RÉSIDENCE DES ARTS,6,Luxembourg,3,11,48.853447,2.34235
MADISON HÔTEL,6,Luxembourg,4,50,48.853254,2.33443
HÔTEL LE RELAIS CHRISTINE,6,Luxembourg,5,49,48.854426,2.339983
HÔTEL VILLA D'ESTRÉES,6,Luxembourg,4,10,48.853499,2.342501
HÔTEL RELAIS SAINT-GERMAIN,6,Luxembourg,4,22,48.851904,2.338825
HÔTEL DES CANETTES,6,Luxembourg,2,23,48.851971,2.333754
HÔTEL DES SAINTS PÈRES,6,Luxembourg,4,38,48.853388,2.329849
HÔTEL AU MANOIR SAINT-GERMAIN DES PRÉS,6,Luxembourg,4,28,48.853802,2.332307
HÔTEL LE SIX,6,Luxembourg,4,41,48.843795,2.328111
VILLA MADAME,6,Luxembourg,4,28,48.848806,2.331593
HÔTEL DE LA TOUR EIFFEL,7,Palais-Bourbon,2,24,48.857629,2.30306
HÔTEL MUGUET,7,Palais-Bourbon,3,40,48.855714,2.308854
BEST WESTERN HÔTEL TOUR EIFFEL INVALIDES,7,Palais-Bourbon,4,30,48.859319,2.310308
VILLA SAXE EIFFEL,7,Palais-Bourbon,4,48,48.84967,2.309712
HÔTEL LE BELLECHASSE SAINT-GERMAIN,7,Palais-Bourbon,4,33,48.859641,2.324126
HÔTEL LINDBERGH,7,Palais-Bourbon,3,26,48.852195,2.326035
HÔTEL 7 EIFFEL,7,Palais-Bourbon,4,32,48.858403,2.307747
HÔTEL DE LONDRES EIFFEL,7,Palais-Bourbon,3,30,48.857945,2.301655
HÔTEL DE LA TULIPE,7,Palais-Bourbon,3,21,48.859977,2.306133
HÔTEL BEAUGENCY,7,Palais-Bourbon,3,30,48.856667,2.307215
HÔTEL MALAR,7,Palais-Bourbon,2,22,48.860191,2.306027
HÔTEL SAINT-GERMAIN,7,Palais-Bourbon,3,29,48.854738,2.324233
HÔTEL LE PAVILLON,7,Palais-Bourbon,3,15,48.859937,2.30943
HÔTEL DU CHAMP DE MARS,7,Palais-Bourbon,3,25,48.856423,2.306044
HÔTEL LA BOURDONNAIS,7,Palais-Bourbon,4,53,48.85493,2.304642
HÔTEL THOUMIEUX,7,Palais-Bourbon,4,14,48.859743,2.308615
HÔTEL LA COMTESSE,7,Palais-Bourbon,4,40,48.853908,2.307242
HÔTEL BOURGOGNE & MONTANA,7,Palais-Bourbon,4,32,48.86015,2.318331
HÔTEL DE L'ALMA,7,Palais-Bourbon,3,32,48.856987,2.303329
CLER HÔTEL,7,Palais-Bourbon,3,26,48.857497,2.305922
GRAND HÔTEL LÉVÊQUE,7,Palais-Bourbon,3,50,48.857435,2.30618
LE CINQ CODET,7,Palais-Bourbon,5,67,48.854994,2.308347
HÔTEL DE LATOUR MAUBOURG,7,Palais-Bourbon,3,17,48.858159,2.310475
K+K HÔTEL CAYRÉ,7,Palais-Bourbon,4,125,48.855296,2.32551
LE SAINT HÔTEL PARIS,7,Palais-Bourbon,4,54,48.856554,2.330329
HÔTEL LE TOURVILLE,7,Palais-Bourbon,4,30,48.854213,2.307837
HÔTEL D'ORSAY,7,Palais-Bourbon,4,42,48.860422,2.323092
HÔTEL KENSINGTON,7,Palais-Bourbon,2,25,48.856539,2.302134
HÔTEL AMÉLIE,7,Palais-Bourbon,2,16,48.859305,2.307504
HÔTEL DE VARENNE,7,Palais-Bourbon,4,24,48.856988,2.317237
HÔTEL ACADÉMIE SAINT GERMAIN,7,Palais-Bourbon,4,33,48.855206,2.330769
HÔTEL DUC DE SAINT SIMON,7,Palais-Bourbon,4,34,48.856043,2.323658
HÔTEL DE L'EMPEREUR,7,Palais-Bourbon,3,31,48.856331,2.309534
HÔTEL EIFFEL TURENNE,7,Palais-Bourbon,3,34,48.854227,2.307562
LE DERBY ALMA,7,Palais-Bourbon,4,33,48.860434,2.300776
HÔTEL JULIANA,7,Palais-Bourbon,5,40,48.861823,2.304061
HÔTEL VERNEUIL SANT-GERMAIN,7,Palais-Bourbon,4,26,48.85734,2.331422
HÔTEL PONT-ROYAL,7,Palais-Bourbon,5,75,48.856639,2.327454
HÔTEL BERSOLYS,7,Palais-Bourbon,3,16,48.858227,2.330872
HÔTEL SAINT-DOMINIQUE,7,Palais-Bourbon,4,32,48.859875,2.308784
HÔTEL DE LA PAIX,7,Palais-Bourbon,3,23,48.856812,2.303041
HÔTEL LE WALT,7,Palais-Bourbon,4,25,48.854735,2.306569
HÔTEL LE NARCISSE BLANC & SPA,7,Palais-Bourbon,5,37,48.860541,2.310419
HÔTEL EIFFEL RIVE GAUCHE,7,Palais-Bourbon,3,29,48.857253,2.302606
HÔTEL DU QUAI VOLTAIRE,7,Palais-Bourbon,3,33,48.858802,2.331203
HÔTEL DE LILLE,7,Palais-Bourbon,4,15,48.858512,2.32991
HÔTEL LE PETIT CHOMEL,7,Palais-Bourbon,3,23,48.851959,2.325328
HÔTEL DE SUÈDE,7,Palais-Bourbon,3,39,48.852568,2.319182
LES JARDINS D'EIFFEL,7,Palais-Bourbon,3,81,48.859046,2.307449
HÔTEL RELAIS BOSQUET,7,Palais-Bourbon,3,40,48.856236,2.305204
HÔTEL DU PALAIS BOURBON,7,Palais-Bourbon,3,25,48.85651,2.31724
HÔTEL DE FRANCE INVALIDES,7,Palais-Bourbon,3,60,48.855589,2.309677
HÔTEL VANEAU SAINT-GERMAIN,7,Palais-Bourbon,3,39,48.848558,2.320383
HÔTEL DE L'UNIVERSITÉ,7,Palais-Bourbon,3,27,48.857011,2.329991
HÔTEL DE LA MOTTE PICQUET,7,Palais-Bourbon,3,16,48.855637,2.307203
HÔTEL DERBY EIFFEL,7,Palais-Bourbon,3,43,48.853646,2.307461
HÔTEL LE BRISTOL,8,Élysée,5,188,48.871647,2.314701
BUDDHA-BAR HÔTEL PARIS,8,Élysée,5,56,48.869492,2.320649
HÔTEL DE L'ARCADE,8,Élysée,3,48,48.871621,2.323493
HÔTEL HOLIDAY INN PARIS ÉLYSÉES,8,Élysée,4,43,48.873035,2.316043
HÔTEL LE VIGNON 8,8,Élysée,4,28,48.871699,2.326286
HÔTEL LE A,8,Élysée,4,26,48.872357,2.308877
HÔTEL BRADFORD ÉLYSÉES,8,Élysée,4,50,48.872886,2.308162
HÔTEL MASSÉNA,8,Élysée,3,36,48.871876,2.32605
HÔTEL FOUQUET'S BARRIÈRE,8,Élysée,5,81,48.871132,2.301181
HÔTEL CHAMPS ELYSÉES PLAZA,8,Élysée,5,35,48.873646,2.306252
LA MAISON CHAMPS ÉLYSÉES,8,Élysée,5,57,48.866563,2.309044
HÔTEL D'ALBION,8,Élysée,3,26,48.872903,2.316484
IDOL HÔTEL,8,Élysée,4,32,48.87947,2.320321
BEST WESTERN OPÉRA SAINT LAZARE,8,Élysée,4,81,48.879708,2.320975
HÔTEL BEST WESTERN PREMIER KAPITAL OPÉRA,8,Élysée,4,54,48.881378,2.323484
HÔTEL WARWICK PARIS,8,Élysée,4,149,48.872003,2.303188
HÔTEL LA SANGUINE,8,Élysée,2,29,48.870625,2.321982
HÔTEL CHAVANEL,8,Élysée,4,27,48.872174,2.326269
HÔTEL ROYAL MADELEINE,8,Élysée,4,68,48.872889,2.324059
BEST WESTERN FOLKESTONE OPÉRA,8,Élysée,3,46,48.872246,2.325044
HÔTEL PAVILLON DES LETTRES,8,Élysée,4,26,48.871377,2.318129
FOUR SEASONS HOTEL GEORGE V,8,Élysée,5,244,48.868599,2.3009
HÔTEL AMASTAN PARIS,8,Élysée,4,24,48.871712,2.312273
HÔTEL WALDORF MADELEINE PARIS,8,Élysée,4,45,48.871573,2.322458
RADISSON BLU HÔTEL CHAMPS ELYSÉES,8,Élysée,5,46,48.872013,2.296936
HÔTEL DE SERS,8,Élysée,5,52,48.868158,2.300391
HÔTEL AMARANTE BEAUMANOIR,8,Élysée,4,60,48.870994,2.323533
HÔTEL PLAZA ÉLYSÉES,8,Élysée,4,41,48.874675,2.305724
ROYAL OPÉRA,8,Élysée,3,30,48.872202,2.325219
HÔTEL CORDELIA,8,Élysée,3,30,48.873125,2.325265
HÔTEL QUEEN MARY,8,Élysée,3,35,48.873032,2.325207
HÔTEL HAUSSMANN SAINT AUGUSTIN,8,Élysée,3,34,48.873316,2.318156
EUROPE LIÈGE,8,Élysée,1,35,48.87999,2.326395
HÔTEL CLARIDGE,8,Élysée,4,42,48.868487,2.303748
HÔTEL LE MONNA LISA,8,Élysée,4,22,48.87151,2.30769
HÔTEL DE LA TRÉMOILLE,8,Élysée,5,93,48.866854,2.302743
HÔTEL EKTA,8,Élysée,3,25,48.871289,2.29812
HÔTEL ÉTOILE SAINT HONORÉ,8,Élysée,4,85,48.8756,2.30408
HÔTEL SPLENDIDE ROYAL,8,Élysée,5,12,48.870983,2.315397
HÔTEL ÉLYSÉES MERMOZ,8,Élysée,4,27,48.871532,2.312137
HÔTEL BELLEVUE,8,Élysée,2,39,48.875023,2.323917
HÔTEL DE VIGNY,8,Élysée,5,37,48.873581,2.300401
HÔTEL BEST WESTERN PARIS GARE SAINT LAZARE,8,Élysée,4,30,48.880334,2.319577
HÔTEL BEST WESTERN PREMIER OPÉRA OPAL,8,Élysée,4,33,48.872225,2.325844
HÔTEL ÉLYSÉES 8,8,Élysée,3,34,48.873075,2.318035
BEST WESTERN HÔTEL SYDNEY OPÉRA,8,Élysée,3,38,48.873384,2.32407
HÔTEL NEWTON OPÉRA,8,Élysée,3,31,48.871745,2.323589
HÔTEL MONTAIGNE,8,Élysée,5,27,48.865508,2.303852
L'HÔTEL DU COLLECTIONNEUR,8,Élysée,5,502,48.877309,2.306658
HÔTEL ROYAL GARDEN CHAMPS ELYSÉES,8,Élysée,4,54,48.875697,2.303796
HÔTEL AUGUSTIN,8,Élysée,3,57,48.875425,2.318298
HÔTEL PERSHING HALL,8,Élysée,5,26,48.869086,2.30222
HÔTEL CHARING CROSS,8,Élysée,3,31,48.874849,2.323749
HÔTEL OCÉANIC,8,Élysée,2,23,48.874995,2.322366
HYATT REGENCY PARIS MADELEINE,8,Élysée,5,86,48.8729,2.321518
HÔTEL DU ROND-POINT DES CHAMPS-ÉLYSÉES,8,Élysée,4,36,48.870395,2.31067
HÔTEL ASTOR SAINT-HONORÉ,8,Élysée,4,128,48.872837,2.319379
HÔTEL RELAIS MONCEAU,8,Élysée,4,51,48.880368,2.317327
HÔTEL NEW ORIENT,8,Élysée,3,30,48.880295,2.319696
HÔTEL BALZAC,8,Élysée,5,69,48.873343,2.300386
HÔTEL CERVANTES,8,Élysée,3,52,48.88099,2.323019
HÔTEL ATALA,8,Élysée,4,48,48.873405,2.302266
HÔTEL ROCHESTER CHAMPS ELYSÉES,8,Élysée,4,106,48.872317,2.309312
HÔTEL ALEXANDRINE  OPÉRA,8,Élysée,3,35,48.880057,2.326265
HÔTEL RENAISSANCE PARIS ARC DE TRIOMPHE,8,Élysée,5,118,48.877251,2.297625
LA VILLA HAUSSMANN,8,Élysée,4,43,48.875302,2.316706
HÔTEL PARK LANE PARIS,8,Élysée,4,48,48.87451,2.318777
HÔTEL CALIFORNIA,8,Élysée,4,172,48.872706,2.304808
HÔTEL LE PETIT MADELEINE,8,Élysée,3,23,48.873297,2.318041
HÔTEL WILSON OPÉRA,8,Élysée,3,30,48.877119,2.32211
HÔTEL SAN RÉGIS,8,Élysée,5,42,48.86646,2.308512
HÔTEL D'ARGENSON,8,Élysée,2,29,48.874995,2.316423
HÔTEL OPÉRA MARIGNY,8,Élysée,4,24,48.871724,2.323534
HÔTEL BEST WESTERN PREMIER OPÉRA DIAMOND,8,Élysée,5,72,48.875256,2.323369
HÔTEL CRISTAL CHAMPS ELYSÉES,8,Élysée,4,26,48.872633,2.302103
HÔTEL MATHIS ÉLYSÉES,8,Élysée,4,23,48.870067,2.311319
HÔTEL LORD BYRON,8,Élysée,3,30,48.873222,2.302321
ROYAL HÔTEL PARIS,8,Élysée,4,56,48.874107,2.300193
HÔTEL BEDFORD,8,Élysée,4,141,48.872118,2.323694
HÔTEL MAYFLOWER,8,Élysée,3,24,48.87314,2.302396
HÔTEL ARC ÉLYSÉES,8,Élysée,3,24,48.87422,2.304522
HÔTEL MARIGNAN PARIS,8,Élysée,5,50,48.868503,2.306474
HÔTEL LANCASTER,8,Élysée,5,56,48.872192,2.303546
HÔTEL MARQUIS FAUBOURG SAINT-HONORÉ,8,Élysée,5,15,48.869799,2.320837
HÔTEL CHÂTEAU FRONTENAC,8,Élysée,4,104,48.869048,2.302636
HÔTEL VERNET,8,Élysée,5,50,48.871974,2.297929
HOTEL LE 123 ELYSÉES,8,Élysée,4,41,48.873128,2.309727
ELYSÉES HÔTEL,8,Élysée,3,29,48.872043,2.308647
HÔTEL LE LAVOISIER,8,Élysée,4,30,48.873759,2.320194
HÔTEL CHAMPS ÉLYSÉE FRIEDLAND,8,Élysée,4,40,48.87511,2.304877
HÔTEL LA RÉSIDENCE DU ROY,8,Élysée,4,39,48.865733,2.308924
HÔTEL GALILEO,8,Élysée,3,27,48.871359,2.298222
HÔTEL PRINCE DE GALLES,8,Élysée,5,159,48.869106,2.300795
SOFITEL PARIS ARC DE TRIOMPHE,8,Élysée,5,124,48.874985,2.301334
HÔTEL LE COLISÉE,8,Élysée,3,45,48.870463,2.307712
HÔTEL INTERCONTINENTAL PARIS AVENUE MARCEAU,8,Élysée,5,56,48.870598,2.298018
HÔTEL FRANCOIS 1ER,8,Élysée,4,40,48.870204,2.29989
HÔTEL SOFITEL PARIS LE FAUBOURG,8,Élysée,5,147,48.868369,2.321425
HÔTEL LE MATHURIN,8,Élysée,4,54,48.873288,2.323937
HÔTEL LE MARIANNE,8,Élysée,4,31,48.872588,2.307587
BEST WESTERN PREMIER LE SWANN,8,Élysée,4,81,48.8798,2.320686
LA RÉSERVE PARIS,8,Élysée,5,40,48.869703,2.31326
HÔTEL DE CASTIGLIONE,8,Élysée,4,65,48.869173,2.320602
HÔTEL EXE PARIS CENTRE,8,Élysée,3,61,48.878423,2.326868
HÔTEL MERCURE PARIS OPÉRA GARNIER,8,Élysée,4,140,48.874877,2.326017
HÔTEL DU MINISTÈRE,8,Élysée,4,43,48.87137,2.319255
HÔTEL MADELEINE HAUSSMANN,8,Élysée,3,35,48.871764,2.323288
TIMHOTEL OPERA MADELEINE,8,Élysée,3,83,48.875353,2.32596
HÔTEL CHAMBIGES ÉLYSÉES,8,Élysée,4,34,48.866885,2.303848
HÔTEL WEST END,8,Élysée,4,49,48.86715,2.30386
HÔTEL DU PRINTEMPS,8,Élysée,3,64,48.874785,2.326636
HÔTEL PARIS MARRIOTT CHAMPS-ÉLYSÉES,8,Élysée,5,194,48.870852,2.304383
HÔTEL POWERS,8,Élysée,4,55,48.869136,2.303148
HÔTEL DELARC,8,Élysée,2,32,48.870537,2.307588
HÔTELLERIE PARIS SAINT HONORE,8,Élysée,2,20,48.872797,2.315782
NEW HOTEL SAINT LAZARE,8,Élysée,3,57,48.880191,2.326941
HÔTEL MADELEINE PLAZA,8,Élysée,4,49,48.871042,2.324773
LE ROYAL MONCEAU RAFFLES PARIS,8,Élysée,5,132,48.875711,2.300064
HÔTEL BERNE OPERA,8,Élysée,3,34,48.881901,2.322164
HÔTEL MONSIEUR,8,Élysée,4,31,48.873531,2.321631
HÔTEL AMARANTE CHAMPS ELYSÉES,8,Élysée,4,32,48.871801,2.298561
HÔTEL MELIA ROYAL ALMA,8,Élysée,4,62,48.865248,2.304476
HÔTEL PLAZA ATHÉNÉE,8,Élysée,5,208,48.866206,2.304414
HÔTEL NAPOLÉON,8,Élysée,5,102,48.874043,2.297558
HILTON PARIS OPERA,8,Élysée,4,266,48.875559,2.325348
HÔTEL ÉLYSÉES OPÉRA,8,Élysée,3,39,48.881458,2.324458
HÔTEL BEAUCHAMPS,8,Élysée,4,90,48.870857,2.30924
QUALITY HOTEL MALESHERBES,8,Élysée,3,24,48.875494,2.31971
HÔTEL LONDRES ET NEW YORK,8,Élysée,3,67,48.875321,2.326326
ATLANTIC HÔTEL,8,Élysée,3,81,48.878123,2.326353
HÔTEL ASTORIA OPÉRA,8,Élysée,3,86,48.881679,2.322921
L'OUEST HÔTEL,8,Élysée,3,50,48.875589,2.323351
PHILÉAS HÔTEL,9,Opéra,4,39,48.876874,2.326998
HÔTEL CORONA RODIER,9,Opéra,3,41,48.877487,2.342404
HÔTEL LIBERTEL MONTMARTRE OPÉRA,9,Opéra,3,52,48.882068,2.334598
HÔTEL MATTLÉ,9,Opéra,3,40,48.873635,2.344889
HÔTEL VICTORIA,9,Opéra,2,103,48.871875,2.343921
HÔTEL MOGADOR,9,Opéra,3,17,48.875155,2.335536
HÔTEL IBIS STYLES PARIS PIGALLE MONTMARTRE,9,Opéra,3,49,48.88128,2.337448
HÔTEL ROYAL BERGÈRE,9,Opéra,3,29,48.873445,2.343953
HÔTEL SAINT PÉTERSBOURG OPÉRA,9,Opéra,4,92,48.872146,2.328129
HÔTEL DU TRIANGLE D'OR,9,Opéra,3,47,48.870446,2.326819
HÔTEL IBIS PARIS GRANDS BOULEVARDS OPÉRA 9ÈME,9,Opéra,3,104,48.874395,2.342028
HÔTEL ACADIA OPÉRA,9,Opéra,3,36,48.873312,2.343693
HÔTEL 34B,9,Opéra,3,128,48.87268,2.343576
HÔTEL DU CALVADOS,9,Opéra,3,25,48.876706,2.32699
HÔTEL MONTHOLON,9,Opéra,3,19,48.876552,2.347094
HÔTEL BASILE,9,Opéra,3,27,48.87158,2.327075
HÔTEL IBIS STYLES PARIS LAFAYETTE OPÉRA,9,Opéra,3,42,48.872794,2.344936
HÔTEL EUGÈNE EN VILLE,9,Opéra,4,66,48.87503,2.341624
HÔTEL GÉRANDO,9,Opéra,2,43,48.882566,2.345855
HOTEL LE PIGALLE,9,Opéra,4,40,48.881617,2.337265
GRAND HÔTEL DE TURIN,9,Opéra,3,51,48.880589,2.339742
HÔTEL SECRET DE PARIS,9,Opéra,4,29,48.881331,2.328323
HÔTEL CHÂTEAUDUN OPERA,9,Opéra,3,26,48.876178,2.336913
VINTIMILLE HÔTEL,9,Opéra,2,40,48.882103,2.328618
HÔTEL LANGLOIS,9,Opéra,3,27,48.876813,2.33364
HÔTEL ROYAL MANSART,9,Opéra,2,32,48.882097,2.333498
HÔTEL PULITZER PARIS,9,Opéra,4,44,48.873259,2.342876
HÔTEL LE CARDINAL,9,Opéra,3,77,48.881098,2.32913
AUSTIN'S SAINT LAZARE HÔTEL,9,Opéra,3,36,48.87697,2.327002
HÔTEL RELAIS MADELEINE,9,Opéra,4,23,48.871021,2.326878
HÔTEL JOYCE,9,Opéra,3,44,48.87937,2.334161
LES PLUMES HÔTEL,9,Opéra,4,35,48.876605,2.34329
HÔTEL JOSÉPHINE,9,Opéra,4,41,48.88228,2.331771
HÔTEL GEORGE OPÉRA,9,Opéra,3,46,48.879525,2.336327
VILLA OPÉRA DROUOT,9,Opéra,4,29,48.873241,2.343553
HÔTEL LÉMAN OPÉRA,9,Opéra,3,24,48.873765,2.345362
GRAND PIGALLE HÔTEL,9,Opéra,4,37,48.880887,2.337542
INTERCONTINENTAL PARIS LE GRAND,9,Opéra,5,470,48.871497,2.330689
HÔTEL RONCERAY OPÉRA,9,Opéra,3,130,48.871929,2.342005
HÔTEL PAX OPÉRA,9,Opéra,3,48,48.87575,2.345437
HÔTEL MILLÉNNIUM PARIS OPÉRA,9,Opéra,4,163,48.872459,2.3378
GRAND HÔTEL DE NORMANDIE,9,Opéra,4,53,48.875943,2.326959
HÔTEL RIVIERA,9,Opéra,3,38,48.880277,2.345462
HÔTEL CARAVELLE,9,Opéra,3,31,48.88116,2.340136
HÔTEL IBIS STYLES PARIS CADET LAFAYETTE,9,Opéra,3,46,48.878255,2.347532
HÔTEL CLAUZEL,9,Opéra,2,38,48.878838,2.339703
HÔTEL VILLA BOHÈME,9,Opéra,3,24,48.88016,2.334266
HÔTEL ANTIN TRINITÉ PARIS,9,Opéra,3,48,48.874324,2.332048
HÔTEL BANKE,9,Opéra,5,93,48.873828,2.336218
GOLD HÔTEL,9,Opéra,3,28,48.883841,2.331555
HÔTEL INDIGO PARIS OPÉRA,9,Opéra,4,57,48.870437,2.329236
HÔTEL PALM OPÉRA,9,Opéra,3,38,48.877496,2.343451
HÔTEL CHOPIN,9,Opéra,2,36,48.871929,2.342005
WILLIAMS OPÉRA,9,Opéra,3,30,48.876872,2.34579
HÔTEL MONDIAL,9,Opéra,3,60,48.871922,2.344306
HÔTEL CORONA OPÉRA,9,Opéra,3,58,48.871784,2.344609
HÔTEL MERCURE PARIS OPÉRA LAFAYETTE,9,Opéra,4,40,48.87291,2.344965
HÔTEL MERCURE PARIS MONTY OPÉRA,9,Opéra,4,69,48.873028,2.344534
HÔTEL MONNIER,9,Opéra,2,34,48.87981,2.337339
HÔTEL VILLA MARGAUX,9,Opéra,3,31,48.880413,2.337432
HÔTEL DE SÈZE,9,Opéra,4,22,48.870537,2.32637
HÔTEL ASTRA OPÉRA,9,Opéra,4,82,48.871798,2.328094
GRAND HÔTEL DU HAVRE,9,Opéra,3,81,48.876582,2.326985
BEST WESTERN PREMIER OPÉRA FAUBOURG,9,Opéra,4,103,48.875381,2.34163
HÔTEL LORETTE,9,Opéra,3,84,48.878863,2.337127
HÔTEL TRINITÉ HAUSSMANN,9,Opéra,4,38,48.880022,2.334394
TIMHOTEL OPÉRA BLANCHE FONTAINE,9,Opéra,4,69,48.882683,2.333851
HÔTEL BRITTANY,9,Opéra,3,40,48.876805,2.338192
HÔTEL RICHMOND OPÉRA,9,Opéra,3,59,48.872028,2.334905
HÔTEL DIVA OPÉRA,9,Opéra,4,44,48.873269,2.345051
HÔTEL DE PARIS MAUBEUGE,9,Opéra,2,34,48.878724,2.345992
HÔTEL VILLA LA PARISIENNE,9,Opéra,3,28,48.87655,2.34016
HÔTEL AXEL OPÉRA,9,Opéra,3,40,48.873053,2.343594
THE CHESS HÔTEL,9,Opéra,4,50,48.87161,2.334943
HÔTEL SCRIBE,9,Opéra,5,213,48.870374,2.329871
HÔTEL JEFF,9,Opéra,2,27,48.873995,2.342647
HÔTEL MERCURE PARIS PIGALLE SACRE COEUR,9,Opéra,4,62,48.882393,2.336552
TIMHOTEL OPÉRA GRANDS MAGASINS,9,Opéra,4,19,48.879502,2.333524
HÔTEL OPÉRA D'ANTIN,9,Opéra,3,30,48.874235,2.332001
9HÔTEL OPÉRA,9,Opéra,3,48,48.876333,2.347143
HÔTEL EDEN OPERA LE SANCY,9,Opéra,3,36,48.879776,2.334019
HÔTEL PRINCE ALBERT OPÉRA,9,Opéra,2,33,48.874222,2.331077
VILLA ROYALE,9,Opéra,4,31,48.88216,2.336744
PAVILLON OPÉRA GRANDS BOULEVARDS,9,Opéra,3,31,48.873703,2.344148
HÔTEL HELIOS OPÉRA,9,Opéra,3,42,48.875211,2.332781
HÔTEL ARVOR,9,Opéra,4,30,48.878551,2.338422
HÔTEL D'ESPAGNE,9,Opéra,3,42,48.872019,2.344726
HÔTEL FRANCE ALBION,9,Opéra,2,35,48.877511,2.338314
HÔTEL PLAZA OPÉRA,9,Opéra,3,34,48.87667,2.341731
HÔTEL BEST WESTERN PREMIER OPÉRA LIÈGE,9,Opéra,5,50,48.879596,2.328056
ALIZÉ PARIS MONTMARTRE,9,Opéra,3,31,48.883802,2.32864
HÔTEL MONTEROSA,9,Opéra,3,36,48.879473,2.334229
HÔTEL OPÉRA CADET,9,Opéra,4,85,48.875417,2.343473
HÔTEL LES 3 POUSSINS,9,Opéra,3,40,48.879118,2.338241
HÔTEL OPÉRA FROCHOT,9,Opéra,3,24,48.881243,2.33767
NELL HÔTEL & SUITES,9,Opéra,4,17,48.874099,2.342556
HÔTEL TOUR D'AUVERGNE,9,Opéra,4,26,48.87891,2.344874
HÔTEL DE L'OCÉAN,9,Opéra,3,52,48.877174,2.345167
HÔTEL DU PRÉ,9,Opéra,3,40,48.877537,2.347102
HÔTEL CARLTON'S MONTMARTRE,9,Opéra,4,108,48.882024,2.340934
HÔTEL APOLLO OPÉRA,9,Opéra,3,29,48.882614,2.3327
SEROTEL SUITES HÔTEL,9,Opéra,4,10,48.876239,2.348353
HÔTEL PAVILLON DE PARIS,9,Opéra,4,30,48.881218,2.327758
LE PÉRA HÔTEL,9,Opéra,4,46,48.871313,2.328044
HÔTEL LONDON,9,Opéra,3,49,48.871332,2.335302
HÔTEL ATN,9,Opéra,3,36,48.877908,2.327891
HÔTEL DE GENÈVE,9,Opéra,3,30,48.877745,2.327521
HÔTEL VICTOR MASSÉ,9,Opéra,2,40,48.881072,2.337137
HÔTEL ROYAL FROMENTIN,9,Opéra,3,47,48.882791,2.334658
HÔTEL FIAT,9,Opéra,2,33,48.882733,2.332424
HÔTEL AVENIR MONTMARTRE,9,Opéra,2,42,48.882808,2.344892
HÔTEL KYRIAD PARIS 9 MONTMARTRE,9,Opéra,3,37,48.880787,2.335441
HÔTEL MAISON SOUQUET,9,Opéra,5,20,48.883582,2.331444
HÔTEL MIGNY OPÉRA MONTMARTRE,9,Opéra,3,50,48.880598,2.339081
HÔTEL ANTIN SAINT-GEORGES,9,Opéra,2,36,48.877967,2.337859
HÔTEL CAUMARTIN OPÉRA,9,Opéra,3,40,48.87169,2.328083
NEWHOTEL LAFAYETTE,9,Opéra,3,50,48.876261,2.342231
HÔTEL VILLA FENELON,9,Opéra,2,38,48.87616,2.342168
HÔTEL LE FAUBOURG,9,Opéra,2,32,48.874221,2.347841
HÔTEL JOKE,9,Opéra,3,44,48.882415,2.331824
HÔTEL R DE PARIS,9,Opéra,4,40,48.879969,2.328978
HÔTEL SACHA,9,Opéra,3,50,48.879508,2.339213
HÔTEL LEBRON,9,Opéra,3,41,48.876595,2.343892
HÔTEL IMPÉRIAL,9,Opéra,3,32,48.875144,2.336111
HÔTEL OPÉRA DEAUVILLE,9,Opéra,3,30,48.87815,2.327048
LE GREY HÔTEL,9,Opéra,4,33,48.881337,2.327409
HÔTEL BRÉSIL OPÉRA,9,Opéra,3,46,48.87239,2.344817
HOLIDAY INN PARIS OPÉRA GRANDS BOULEVARDS,9,Opéra,4,116,48.871505,2.343181
W PARIS OPÉRA,9,Opéra,5,91,48.872087,2.333261
HÔTEL PEYRIS OPÉRA,9,Opéra,3,50,48.873903,2.347071
NEWHOTEL OPÉRA,9,Opéra,3,42,48.879733,2.328736
HÔTEL ASTON,9,Opéra,3,36,48.871811,2.344853
HÔTEL HAVANE,9,Opéra,3,54,48.875748,2.345613
HÔTEL SAINT GEORGES LAFAYETTE,9,Opéra,2,31,48.880574,2.339224
HÔTEL LODGE DU CENTRE,9,Opéra,3,50,48.873377,2.34382
HÔTEL DU SQUARE D'ANVERS,9,Opéra,2,28,48.882236,2.344854
HÔTEL ADÈLE & JULES,9,Opéra,4,30,48.872154,2.345304
HÔTEL VILLA LAFAYETTE PARIS IX,9,Opéra,4,26,48.87606,2.345648
HÔTEL AURORE MONTMARTRE,9,Opéra,3,24,48.882599,2.327956
HÔTEL DE DIEPPE,9,Opéra,3,27,48.876786,2.326993
HÔTEL PELETIER HAUSSMANN OPÉRA,9,Opéra,2,26,48.872723,2.338409
HÔTEL TOURING,9,Opéra,3,52,48.876074,2.342113
HÔTEL IBIS PARIS OPÉRA LAFAYETE,9,Opéra,3,67,48.875979,2.342055
HÔTEL HELUSSI,9,Opéra,3,23,48.877901,2.346959
HÔTEL TOURAINE OPÉRA,9,Opéra,3,39,48.876348,2.335308
HÔTEL DE NELL,9,Opéra,5,33,48.873268,2.346784
HÔTEL RELAIS DU PRÉ,9,Opéra,3,34,48.877998,2.347516
HÔTEL MOULIN PLAZA,9,Opéra,3,50,48.883046,2.332899
HÔTEL EXCELSIOR OPÉRA,9,Opéra,3,52,48.873539,2.334594
HÔTEL PAVILLON OPÉRA LAFAYETTE,9,Opéra,3,33,48.879122,2.343448
HÔTEL DE LA CITÉ ROUGEMONT,9,Opéra,2,37,48.872076,2.345281
HÔTEL OPÉRA VIVALDI,9,Opéra,3,34,48.871887,2.335014
HÔTEL DE LILLE,9,Opéra,1,21,48.876683,2.348517
R.KIPLING HOTEL,9,Opéra,4,40,48.882058,2.331683
PAVILLON OPÉRA BOURSE,9,Opéra,3,28,48.87391,2.344553
MONSIEUR CADET HOTEL&SPA,9,Opéra,4,29,48.874303,2.342583
HÔTEL LES MATINS DE PARIS,9,Opéra,4,33,48.878921,2.339449
HÔTEL OPÉRA LAFAYETTE,9,Opéra,3,54,48.876332,2.346075
HÔTEL PANACHE,9,Opéra,4,40,48.873235,2.343235
HÔTEL OPÉRA DROUOT,9,Opéra,3,39,48.873089,2.342485
HÔTEL GISENDRE,9,Opéra,1,32,48.882366,2.334649
HÔTEL APPIA LA FAYETTE,10,Entrepôt,3,42,48.87839,2.35703
IBIS STYLES PARIS GARE DU NORD TGV,10,Entrepôt,3,44,48.879509,2.356619
HÔTEL NORD ET CHAMPAGNE,10,Entrepôt,2,43,48.876553,2.354912
HÔTEL KYRIAD PARIS X CANAL SAINT-MARTIN RÉPUBLIQUE,10,Entrepôt,3,39,48.872839,2.361337
HÔTEL HOR,10,Entrepôt,4,47,48.879371,2.357662
HÔTEL REGINA OPÉRA,10,Entrepôt,4,42,48.870848,2.351817
HÔTEL VICTORY GALOU,10,Entrepôt,1,25,48.871238,2.354219
HÔTEL DU BRABANT,10,Entrepôt,2,30,48.877488,2.353715
HÔTEL KUNTZ,10,Entrepôt,2,35,48.87844,2.35829
HÔTEL SOFT,10,Entrepôt,3,31,48.873264,2.359901
HÔTEL LITTLE RÉGINA,10,Entrepôt,2,35,48.875963,2.357717
HÔTEL MÉTROPOL,10,Entrepôt,3,41,48.880175,2.351485
HÔTEL PICARDY,10,Entrepôt,2,45,48.879467,2.356824
HÔTEL CHABROL OPÉRA,10,Entrepôt,3,27,48.877201,2.351101
HÔTEL FAUBOURG 216-224,10,Entrepôt,3,56,48.883611,2.35938
GRAND HÔTEL DE L'EUROPE,10,Entrepôt,2,48,48.875615,2.358198
AVALON HÔTEL PARIS,10,Entrepôt,3,64,48.881112,2.351476
HÔTEL PAVILLON OPÉRA,10,Entrepôt,4,92,48.871795,2.349266
HÔTEL PROVINCES OPÉRA,10,Entrepôt,3,112,48.87174,2.349555
SIBOUR HÔTEL,10,Entrepôt,2,44,48.875081,2.358407
HÔTEL AMIOT,10,Entrepôt,2,68,48.875771,2.358327
HÔTEL IBIS PARIS GARE DU NORD CHÂTEAU LANDON,10,Entrepôt,3,165,48.880869,2.362823
HÔTEL IBIS STYLES PARIS GARE DE L'EST CHÂTEAU LANDON,10,Entrepôt,3,163,48.879018,2.362256
HÔTEL LE ROBINET D'OR,10,Entrepôt,3,16,48.878147,2.364746
HÔTEL MAGENTA 38,10,Entrepôt,3,66,48.872099,2.36006
HÔTEL BRISTOL NORD,10,Entrepôt,1,24,48.879354,2.358524
HÔTEL PARADIS,10,Entrepôt,3,38,48.87382,2.349928
COMFORT HOTEL PARIS LAFAYETTE,10,Entrepôt,3,52,48.876412,2.349049
HÔTEL PROVIDENCE,10,Entrepôt,4,18,48.86928,2.356567
HÔTEL DES COMÉDIES,10,Entrepôt,3,35,48.871071,2.349834
HÔTEL IBIS PARIS GARE DU NORD LAFAYETTE,10,Entrepôt,3,70,48.878052,2.352621
HÔTEL DE BORDEAUX,10,Entrepôt,2,25,48.874669,2.355709
HOLIDAY INN PARIS GARE DE L'EST,10,Entrepôt,4,200,48.876029,2.358852
HÔTEL KYRIAD GARE DU NORD,10,Entrepôt,3,46,48.879629,2.355847
HÔTEL MAUBEUGE GARE DU NORD,10,Entrepôt,2,29,48.880321,2.351376
LE ROCROY HÔTEL PARIS,10,Entrepôt,3,54,48.879684,2.350762
PARIS RÉSIDENCE HÔTEL,10,Entrepôt,3,12,48.881003,2.351317
HÔTEL MAISON DU PRÉ,10,Entrepôt,2,40,48.8798,2.350219
HÔTEL RENAISSANCE PARIS RÉPUBLIQUE,10,Entrepôt,5,121,48.868436,2.360894
HÔTEL WINDSOR OPÉRA,10,Entrepôt,4,24,48.873439,2.348601
HÔTEL MY HOME IN PARIS,10,Entrepôt,4,28,48.871463,2.362975
HÔTEL EUROSTARS PANORAMA,10,Entrepôt,3,43,48.876228,2.350002
HÔTEL HAUTEVILLE OPÉRA,10,Entrepôt,3,26,48.873956,2.350472
CENTRAL HÔTEL,10,Entrepôt,2,41,48.872483,2.35555
HÔTEL IBIS PARIS GARE DU NORD TGV,10,Entrepôt,3,49,48.879163,2.355648
HÔTEL TAYLOR,10,Entrepôt,3,37,48.869425,2.359136
HÔTEL LIÈGE STRASBOURG,10,Entrepôt,2,41,48.87379,2.356533
HÔTEL MERCURE PARIS OPÉRA GRANDS BOULEVARDS,10,Entrepôt,4,49,48.873921,2.350107
ALANE HÔTEL,10,Entrepôt,3,32,48.875438,2.356891
HÔTEL LIBERTY,10,Entrepôt,1,42,48.872553,2.358095
HÔTEL WHISTLER,10,Entrepôt,4,31,48.879176,2.355858
HÔTEL MORIS,10,Entrepôt,3,45,48.869191,2.357492
LITTLE HÔTEL,10,Entrepôt,2,37,48.870475,2.360218
HÔTEL MONTANA,10,Entrepôt,2,23,48.879539,2.358304
MIDNIGHT HÔTEL PARIS,10,Entrepôt,3,25,48.87732,2.356105
HÔTEL DE L'EUROPE,10,Entrepôt,2,36,48.877778,2.354969
HÔTEL DE MILAN,10,Entrepôt,1,49,48.878036,2.355375
HÔTEL LIBERTEL GARE DU NORD SUÈDE,10,Entrepôt,3,50,48.878013,2.354756
HÔTEL IBIS PARIS CANAL SAINT MARTIN,10,Entrepôt,3,49,48.879402,2.368382
HÔTEL IBIS STYLES PARIS GARE DE L'EST TGV,10,Entrepôt,3,32,48.875812,2.357474
HÔTEL IBIS STYLES PARIS RÉPUBLIQUE LE MARAIS,10,Entrepôt,3,70,48.869119,2.364135
HÔTEL MODERNE DU TEMPLE,10,Entrepôt,3,36,48.86998,2.369794
HÔTEL MODERN'EST,10,Entrepôt,2,30,48.875984,2.357534
HÔTEL ALBERT 1ER,10,Entrepôt,3,54,48.87949,2.358119
HÔTEL AULIVIA OPÉRA,10,Entrepôt,4,32,48.872985,2.354012
TIMHOTEL GARE DU NORD,10,Entrepôt,3,76,48.881359,2.361933
HÔTEL D'AMIENS,10,Entrepôt,3,53,48.878375,2.35727
RÉPUBLIQUE HÔTEL,10,Entrepôt,3,39,48.869485,2.363101
HÔTEL DE L'EXPOSITION RÉPUBLIQUE,10,Entrepôt,3,28,48.869151,2.362768
GARDEN SAINT-MARTIN,10,Entrepôt,2,32,48.87126,2.362385
HÔTEL PARIS-NORD,10,Entrepôt,2,42,48.879383,2.358384
9HÔTEL RÉPUBLIQUE,10,Entrepôt,4,48,48.870831,2.360582
HÔTEL DISTRICT RÉPUBLIQUE,10,Entrepôt,2,33,48.870834,2.359874
HÔTEL D'ALSACE,10,Entrepôt,3,34,48.875723,2.357448
TIMHOTEL PARIS GARE DE L'EST,10,Entrepôt,3,53,48.87487,2.360132
HÔTEL BELTA,10,Entrepôt,3,62,48.873929,2.362377
HÔTEL LIBERTEL GARE DE L'EST FRANÇAIS,10,Entrepôt,3,70,48.87623,2.357077
HÔTEL RICHMOND,10,Entrepôt,2,41,48.879565,2.356311
HÔTEL ALTONA,10,Entrepôt,2,54,48.882477,2.34977
HÔTEL RESTAURANT LA VIEILLE FRANCE,10,Entrepôt,3,34,48.879294,2.356577
NEW HÔTEL,10,Entrepôt,2,43,48.879647,2.355974
HÔTEL DES TROIS NATIONS,10,Entrepôt,2,38,48.869862,2.360554
HÔTEL IBIS PARIS GARE DE L'EST,10,Entrepôt,3,112,48.875507,2.358509
HÔTEL FAUBOURG 88,10,Entrepôt,4,29,48.877673,2.34922
HÔTEL LE MARCEL,10,Entrepôt,4,28,48.876189,2.357295
HÔTEL JARRY,10,Entrepôt,1,36,48.873979,2.356247
HÔTEL CAMBRAI,10,Entrepôt,2,28,48.880899,2.35166
BEST WESTERN HÔTEL FAUBOURG SAINT MARTIN,10,Entrepôt,3,42,48.870949,2.355725
MERCURE TERMINUS NORD,10,Entrepôt,4,236,48.879767,2.354729
HÔTEL PARIS LOUIS BLANC,10,Entrepôt,3,91,48.881162,2.365418
HÔTEL GARDEN OPÉRA,10,Entrepôt,3,32,48.872653,2.354765
ART HÔTEL LAFAYETTE,10,Entrepôt,3,26,48.877439,2.351604
HÔTEL MAZAGRAN,10,Entrepôt,2,24,48.870312,2.351399
COMFORT HOTEL GARE DE L'EST,10,Entrepôt,3,54,48.871172,2.355064
HÔTEL D'ENGHIEN,10,Entrepôt,2,25,48.872449,2.34835
HÔTEL NORD EST,10,Entrepôt,2,30,48.877442,2.35411
HÔTEL MADEMOISELLE,10,Entrepôt,4,53,48.87729,2.354312
HÔTEL COSMOTEL,10,Entrepôt,3,30,48.870455,2.35466
HÔTEL DU NORD ET DE L'EST,11,Popincourt,3,45,48.86587,2.367556
HÔTEL BASTILLE DE LAUNAY,11,Popincourt,3,35,48.858596,2.36854
COMFORT HÔTEL NATION,11,Popincourt,3,43,48.853691,2.388133
HÔTEL INTERNATIONAL,11,Popincourt,3,36,48.868572,2.371518
HÔTEL CAMÉLIA PRESTIGE,11,Popincourt,2,31,48.849798,2.395271
HÔTEL BAUDIN,11,Popincourt,2,16,48.853091,2.377002
BEST WESTERN HÔTEL SAINT MARTIN BASTILLE,11,Popincourt,3,27,48.86451,2.371093
GARDETTE PARK HÔTEL,11,Popincourt,4,40,48.86103,2.378898
HÔTEL BRISTOL,11,Popincourt,3,45,48.868065,2.365689
NEWHOTEL CANDIDE,11,Popincourt,3,48,48.858365,2.381698
GRAND HÔTEL NOUVEL OPÉRA,11,Popincourt,3,60,48.855592,2.378703
HÔTEL IBIS PARIS BASTILLE FAUBOURG SAINT ANTOINE,11,Popincourt,3,71,48.851754,2.378742
HÔTEL BEST WESTERN MARAIS BASTILLE,11,Popincourt,3,37,48.857253,2.37143
HÔTEL IBIS PARIS BASTILLE OPÉRA,11,Popincourt,3,305,48.857332,2.37292
VILLA BELLAGIO PARIS XI,11,Popincourt,2,30,48.866949,2.379505
LE GÉNÉRAL HÔTEL,11,Popincourt,4,46,48.866213,2.36697
HÔTEL DE NEVERS,11,Popincourt,2,32,48.866157,2.367381
HÔTEL ALHAMBRA,11,Popincourt,3,53,48.864022,2.368746
HÔTEL DE BELFORT,11,Popincourt,2,32,48.856856,2.384663
HÔTEL IBIS PARIS AVENUE DE LA RÉPUBLIQUE,11,Popincourt,3,40,48.866354,2.367977
HÔTEL DES MÉTALLOS,11,Popincourt,3,29,48.864034,2.371968
HÔTEL CROWNE PLAZA PARIS RÉPUBLIQUE,11,Popincourt,4,328,48.867391,2.36524
HÔTEL SELVA,11,Popincourt,2,18,48.855019,2.386437
HÔTEL HIBISCUS,11,Popincourt,2,26,48.867965,2.365802
HÔTEL DAVAL,11,Popincourt,2,23,48.854662,2.371124
HÔTEL DU PRINCE EUGÈNE,11,Popincourt,3,36,48.850643,2.392454
LE 20 PRIEURÉ HÔTEL,11,Popincourt,3,32,48.866018,2.368516
HIPOTEL PARIS VOLTAIRE BASTILLE,11,Popincourt,3,36,48.857363,2.38052
MARY'S HOTEL,11,Popincourt,2,40,48.864099,2.368708
HÔTEL ORIGINAL PARIS,11,Popincourt,4,38,48.854809,2.368988
HÔTEL EXQUIS,11,Popincourt,4,42,48.853688,2.380563
LE MAREUIL,11,Popincourt,4,35,48.866007,2.367477
HÔTEL GABRIEL,11,Popincourt,3,41,48.8661,2.368287
HIPOTEL PARIS PÈRE LACHAISE RÉPUBLIQUE,11,Popincourt,3,52,48.86126,2.38267
HÔTEL DE NEMOURS,11,Popincourt,2,27,48.865202,2.372824
HÔTEL BEAUSÉJOUR,11,Popincourt,2,31,48.864234,2.37512
HÔTEL DE VIENNE,11,Popincourt,1,21,48.86563,2.367713
STANDARD DESIGN HÔTEL,11,Popincourt,3,37,48.855434,2.374593
HÔTEL DES ARTS CAVAIGNAC,11,Popincourt,2,35,48.854085,2.381984
GRAND HÔTEL FRANÇAIS,11,Popincourt,3,36,48.851634,2.390793
PAVILLON NATION,11,Popincourt,3,43,48.854065,2.39547
HÔTEL PARIS BASTILLE BOUTET,11,Popincourt,5,80,48.851992,2.383632
HÔTEL VERLAIN,11,Popincourt,3,37,48.864981,2.377675
HÔTEL L'ANTOINE,11,Popincourt,4,38,48.852454,2.37434
HÔTEL DE LHORLOGE,11,Popincourt,2,47,48.865324,2.383269
HÔTEL IBIS STYLES VOLTAIRE RÉPUBLIQUE,11,Popincourt,3,42,48.866564,2.372847
CAMPANILE PARIS BASTILLE,11,Popincourt,3,161,48.857542,2.369981
HÔTEL IBIS PARIS PÈRE LACHAISE,11,Popincourt,3,31,48.862044,2.385458
AUBERGE FLORA,11,Popincourt,3,21,48.85822,2.371868
HÔTEL ROYAL BASTILLE,11,Popincourt,2,26,48.853675,2.370813
HÔTEL DU CHEMIN VERT,11,Popincourt,3,30,48.860999,2.380615
COSMOS HÔTEL,11,Popincourt,2,36,48.866475,2.372506
HÔTEL FABRIC,11,Popincourt,4,33,48.863044,2.372911
HÔTEL LE  MÉTROPOLITAIN,11,Popincourt,3,8,48.866755,2.382242
BLC DESIGN HÔTEL,11,Popincourt,3,29,48.854346,2.382605
CLASSICS HÔTEL BASTILLE,11,Popincourt,3,35,48.855043,2.386538
HÔTEL BEAUMARCHAIS,11,Popincourt,3,31,48.862841,2.367629
HÔTEL PARIS VOLTAIRE,11,Popincourt,2,27,48.858376,2.377736
GRAND HÔTEL AMELOT,11,Popincourt,3,44,48.859257,2.368356
HÔTEL LÉONARD DE VINCI,11,Popincourt,2,34,48.867096,2.374194
HÔ MARAIS,11,Popincourt,3,33,48.865445,2.365683
SWEET HÔTEL PARIS,12,Reuilly,3,29,48.838788,2.400828
HÔTEL ALLÉGRO PARIS,12,Reuilly,4,49,48.843072,2.405142
L'AGATE HÔTEL PARIS,12,Reuilly,3,43,48.847641,2.39985
IBIS PARIS BASTILLE,12,Reuilly,3,42,48.849396,2.38533
HÔTEL DE LA PORTE DORÉE,12,Reuilly,3,43,48.835994,2.405954
HÔTEL DE REIMS,12,Reuilly,2,28,48.847126,2.377583
HÔTEL CLARET,12,Reuilly,3,52,48.839906,2.381574
HÔTEL GOLDEN TULIP BERCY GARE DE LYON 209,12,Reuilly,4,47,48.839121,2.3892
HÔTEL BEL ORANGER,12,Reuilly,3,25,48.847011,2.370556
HÔTEL JULES CÉSAR,12,Reuilly,3,48,48.84813,2.372003
HÔTEL HELVETIA,12,Reuilly,2,48,48.84591,2.375543
HÔTEL DES PYRÉNÉES,12,Reuilly,2,33,48.849832,2.385494
HÔTEL IBIS DAUMESNIL PORTE DORÉE,12,Reuilly,3,39,48.835067,2.405447
HÔTEL LYON BASTILLE,12,Reuilly,3,48,48.846868,2.372833
BEST WESTERN AURORE,12,Reuilly,3,30,48.845783,2.370629
HÔTEL IBIS PARIS BERCY VILLAGE,12,Reuilly,3,195,48.832373,2.38684
HÔTEL LE QUARTIER BERCY SQUARE,12,Reuilly,3,57,48.839466,2.392681
HÔTEL DES TROIS GARES,12,Reuilly,3,34,48.84887,2.368366
HÔTEL MARCEAU BASTILLE,12,Reuilly,4,55,48.848973,2.369787
VENISE HOTEL,12,Reuilly,2,30,48.845336,2.383634
HÔTEL AMADEUS,12,Reuilly,2,22,48.849068,2.389163
61 PARIS NATION HÔTEL,12,Reuilly,4,48,48.846518,2.410237
HÔTEL PAVILLON BASTILLE,12,Reuilly,3,25,48.850816,2.370019
PINK HÔTEL,12,Reuilly,3,15,48.839969,2.391848
HÔTEL VIATOR,12,Reuilly,3,45,48.846817,2.372475
LUX HÔTEL PICPUS,12,Reuilly,2,38,48.845559,2.402072
NOUVEL HÔTEL,12,Reuilly,2,27,48.847009,2.397354
HOTEL NOVOTEL PARIS GARE DE LYON,12,Reuilly,4,253,48.845727,2.37435
HÔTEL PARIS BASTILLE,12,Reuilly,3,37,48.85094,2.369963
HÔTEL NOVOTEL PARIS BERCY,12,Reuilly,4,151,48.838876,2.380615
HÔTEL LE TWELVE,12,Reuilly,3,33,48.846456,2.406252
HÔTEL BEL AIR,12,Reuilly,3,20,48.845056,2.406439
HÔTEL L'INTERLUDE,12,Reuilly,3,43,48.836383,2.403662
HÔTEL PRINCE ALBERT LYON BERCY,12,Reuilly,3,38,48.8472,2.377782
LUXOR  BASTILLE  HÔTEL,12,Reuilly,2,24,48.850263,2.373057
HÔTEL ADRIATIC,12,Reuilly,2,50,48.847094,2.372039
HÔTEL IBIS PARIS GARE DE LYON DIDEROT,12,Reuilly,3,89,48.846327,2.376532
AZUR HÔTEL,12,Reuilly,3,55,48.846291,2.37195
GRAND HÔTEL DORÉ,12,Reuilly,3,36,48.839129,2.397423
HÔTEL MISTRAL,12,Reuilly,2,19,48.845344,2.383308
GRAND HÔTEL DU BEL AIR,12,Reuilly,2,26,48.84739,2.399356
HOTEL TERMINUS LYON PARIS,12,Reuilly,3,60,48.845781,2.37177
HÔTEL HOLIDAY INN GARE DE LYON BASTILLE,12,Reuilly,4,128,48.846781,2.371733
HÔTEL IBIS PARIS GARE DE LYON LEDRU ROLLIN,12,Reuilly,3,119,48.847805,2.370985
HÔTEL DU PRINTEMPS,12,Reuilly,2,38,48.845795,2.401719
HÔTEL DE FRANCE GARE DE LYON BASTILLE,12,Reuilly,3,42,48.847502,2.371855
HÔTEL KYRIAD PARIS BERCY VILLAGE,12,Reuilly,3,201,48.835111,2.387533
HÔTEL IBIS STYLES PARIS BERCY,12,Reuilly,3,361,48.838469,2.381131
HÔTEL PULLMAN PARIS CENTRE BERCY,12,Reuilly,4,396,48.831471,2.387386
HÔTEL DE L'AVEYRON,12,Reuilly,1,30,48.846869,2.370327
HÔTEL DU MIDI,12,Reuilly,2,32,48.847268,2.372742
HÔTEL ÉLYSÉE GARE DE LYON,12,Reuilly,3,37,48.846651,2.369819
CORAIL HÔTEL,12,Reuilly,3,50,48.847435,2.371517
TIMHÔTEL PARIS GARE DE LYON,12,Reuilly,3,54,48.846706,2.370041
HIPOTEL PARIS NATION GARE DE LYON,12,Reuilly,3,40,48.846929,2.408023
MERCURE PARIS BASTILLE SAINT ANTOINE,12,Reuilly,4,34,48.849571,2.379663
PAVILLON SAINT-LOUIS BASTILLE,12,Reuilly,3,31,48.849414,2.37442
HÔTEL PRINCE ALBERT CONCORDIA,12,Reuilly,2,25,48.846089,2.377116
HÔTEL MERCURE PARIS GARE DE LYON,12,Reuilly,4,315,48.844422,2.372909
LE SAINT-HUBERT,12,Reuilly,2,15,48.846998,2.372357
HÔTEL ALCYON,12,Reuilly,2,36,48.849906,2.375695
HÔTEL DE WEHA,13,Gobelins,3,35,48.830017,2.356673
QUALITY SUITES BERCY BIBLIOTHÈQUE,13,Gobelins,3,70,48.829367,2.374805
HÔTEL HOLIDAY INN EXPRESS PARIS PLACE D'ITALIE,13,Gobelins,3,70,48.831593,2.357372
HÔTEL NOVEX,13,Gobelins,2,26,48.822795,2.36144
HÔTEL VERLAINE,13,Gobelins,2,20,48.827245,2.352014
IBIS STYLES PARIS PLACE D'ITALIE BUTTE AUX CAILLES,13,Gobelins,2,77,48.828359,2.347367
VILLA LUTÈCE PORT ROYAL,13,Gobelins,4,39,48.835496,2.361766
BEST WESTERN AMIRAL HÔTEL,13,Gobelins,4,49,48.825318,2.357244
HÔTEL DE CHOISY,13,Gobelins,2,27,48.826924,2.359101
HÔTEL HENRIETTE,13,Gobelins,3,32,48.835797,2.351282
LA MAISON BLANCHE,13,Gobelins,2,17,48.822621,2.358663
IBIS STYLES PARIS MASSENA OLYMPIADE,13,Gobelins,3,93,48.82348,2.371331
HÔTEL DES BEAUX ARTS,13,Gobelins,2,25,48.827211,2.358686
HÔTEL LA MANUFACTURE,13,Gobelins,3,57,48.832926,2.355318
HÔTEL NEPTUNE,13,Gobelins,2,26,48.831856,2.357388
HÔTEL LODGE IN,13,Gobelins,3,143,48.821235,2.376766
HÔTEL JENNER,13,Gobelins,3,20,48.834444,2.364009
LE VERT GALANT,13,Gobelins,3,16,48.832218,2.350422
OFF PARIS SEINE,13,Gobelins,4,58,48.841473,2.369433
HÔTEL MERCURE PARIS BERCY BIBLIOTHÈQUE,13,Gobelins,4,88,48.837396,2.372993
HÔTEL KYRIAD PARIS 13 ITALIE GOBELINS,13,Gobelins,3,58,48.833781,2.354994
HÔTEL IBIS PARIS PLACE D'ITALIE,13,Gobelins,3,72,48.832689,2.359115
HÔTEL IBIS STYLES PARIS TOLBIAC BIBLIOTHÈQUE,13,Gobelins,3,69,48.828879,2.373909
COQ HÔTEL,13,Gobelins,4,50,48.832927,2.357293
HÔTEL DE LA PLACE DES ALPES,13,Gobelins,2,42,48.832139,2.358871
HÔTEL IBIS AVENUE D'ITALIE,13,Gobelins,3,122,48.829327,2.356568
HÔTEL SAINT CHARLES,13,Gobelins,3,57,48.827128,2.348325
GRAND HÔTEL DES GOBELINS,13,Gobelins,3,46,48.837578,2.354991
HÔTEL AMBRE,13,Gobelins,3,26,48.825841,2.352841
HÔTEL DES ÉCRIVAINS,13,Gobelins,3,38,48.833273,2.355989
HÔTEL MERCURE PARIS PLACE D'ITALIE,13,Gobelins,4,50,48.830244,2.352958
HÔTEL LE RICHEMONT,13,Gobelins,3,37,48.828028,2.368848
HÔTEL IBIS ITALIE TOLBIAC,13,Gobelins,3,60,48.825834,2.352616
BELAMBRA CITY HÔTEL MAGENDIE,13,Gobelins,2,112,48.83394,2.345845
HÔTEL COYPEL,13,Gobelins,2,41,48.833266,2.356443
HÔTEL MERCURE PARIS GOBELINS PLACE D'ITALIE,13,Gobelins,4,60,48.832096,2.353676
HÔTEL SAINT MARCEL,13,Gobelins,3,24,48.838154,2.356819
JACK'S HÔTEL,13,Gobelins,3,30,48.832933,2.359293
GREEN HÔTELS PARIS 13,13,Gobelins,3,38,48.827384,2.372017
HÔTEL RÉSIDENCE CHATILLON,14,Observatoire,2,26,48.826027,2.325989
9 HÔTEL MONTPARNASSE,14,Observatoire,3,42,48.833727,2.317612
HÔTEL DU LION,14,Observatoire,2,33,48.833605,2.331912
VILLA ROYALE MONTSOURIS,14,Observatoire,3,36,48.823397,2.330671
VILLA MONTPARNASSE,14,Observatoire,4,46,48.834852,2.329624
HÔTEL MERCURE PARIS ALÉSIA,14,Observatoire,4,91,48.82377,2.323945
SPORT HOTEL,14,Observatoire,1,19,48.824702,2.326441
HÔTEL MONTPARNASSE ALÉSIA,14,Observatoire,3,70,48.830028,2.320288
VACANCES BLEUES HÔTELS VILLA MODIGLIANI,14,Observatoire,3,101,48.841603,2.327934
HÔTEL LE M,14,Observatoire,4,59,48.839714,2.323504
HÔTEL ODESSA MONTPARNASSE,14,Observatoire,2,41,48.841524,2.324676
ALL SEASONS PARIS MAINE MONTPARNASSE,14,Observatoire,3,52,48.831677,2.321798
IDÉAL HÔTEL DESIGN,14,Observatoire,3,69,48.823292,2.326104
HÔTEL ARCADIE MONTPARNASSE,14,Observatoire,3,26,48.838811,2.322561
HÔTEL CONCORDE MONTPARNASSE,14,Observatoire,4,354,48.837728,2.318574
HÔTEL BEAUNIER,14,Observatoire,2,19,48.824294,2.328903
HÔTEL LES JARDINS D'ALÉSIA PARIS,14,Observatoire,3,19,48.827916,2.329776
HÔTEL AIGLON,14,Observatoire,4,46,48.839655,2.330173
BERKELEY HÔTEL,14,Observatoire,3,39,48.842934,2.324287
HÔTEL PARIS MARRIOTT RIVE GAUCHE HÔTEL & CONFERENCE CENTER,14,Observatoire,4,757,48.831875,2.339534
TIMHÔTEL ODESSA MONTPARNASSE,14,Observatoire,3,55,48.842645,2.324366
HÔTEL DE PARIS,14,Observatoire,3,54,48.840179,2.322087
HOTEL NOVOTEL PARIS PORTE D'ORLÉANS,14,Observatoire,4,150,48.819868,2.325268
HÔTEL MONTSOURIS ORLÉANS,14,Observatoire,1,27,48.824068,2.330076
F1 PARIS PORTE DE CHATILLON,14,Observatoire,1,354,48.823131,2.316328
HÔTEL CLAIREFONTAINE,14,Observatoire,3,22,48.835972,2.32534
HÔTEL RENOIR,14,Observatoire,3,27,48.842692,2.326198
HÔTEL ESPÉRANCE,14,Observatoire,1,15,48.838745,2.322923
HÔTEL UNIC RENOIR SAINT GERMAIN,14,Observatoire,3,45,48.841992,2.325384
HÔTEL DU PARC,14,Observatoire,3,36,48.84075,2.324355
HÔTEL MONTPARNASSE SAINT-GERMAIN,14,Observatoire,3,28,48.842412,2.323456
HÔTEL EDGAR QUINET,14,Observatoire,2,17,48.841183,2.324056
LE FABE HÔTEL,14,Observatoire,3,17,48.833886,2.315196
HÔTEL RASPAIL MONTPARNASSE,14,Observatoire,3,38,48.841501,2.330046
LE NOUVEL HÔTEL DU THÉÂTRE,14,Observatoire,3,9,48.839532,2.322518
HÔTEL MISTRAL,14,Observatoire,3,37,48.836887,2.323838
LE 55 MONTPARNASSE HÔTEL,14,Observatoire,3,40,48.833583,2.31776
HÔTEL DU MAINE,14,Observatoire,2,31,48.835382,2.323137
TIMHÔTEL TOUR MONTPARNASSE,14,Observatoire,3,48,48.840239,2.324142
PETIT PALACE HÔTEL,14,Observatoire,2,41,48.83484,2.324273
LE GLAM’S HÔTEL,14,Observatoire,3,27,48.824512,2.327212
HÔTEL VIRGINA,14,Observatoire,3,55,48.823978,2.327458
HÔTEL IBIS PARIS ALÉSIA MONTPARNASSE,14,Observatoire,3,264,48.827428,2.320941
HÔTEL DE BLOIS,14,Observatoire,2,27,48.831836,2.324672
HÔTEL CHATILLON MONTPARNASSE,14,Observatoire,3,31,48.825684,2.323212
HÔTEL VILLA DU MAINE,14,Observatoire,2,39,48.827249,2.315992
HÔTEL ISTRIA,14,Observatoire,3,26,48.839071,2.331618
HOTEL DE LA GAÎTÉ - HÔTEL NEW PARNASSE,14,Observatoire,3,28,48.8395,2.322863
HÔTEL DELAMBRE,14,Observatoire,3,30,48.841346,2.326042
CENTRAL HÔTEL PARIS,14,Observatoire,3,44,48.840502,2.32381
HÔTEL SOPHIE GERMAIN,14,Observatoire,3,32,48.83097,2.330606
HÔTEL NOVOTEL SUITES PARIS EXPO PORTE DE VERSAILLES,14,Observatoire,4,99,48.827653,2.304608
HÔTEL WALDORF MONTPARNASSE,14,Observatoire,3,30,48.842534,2.3236
HÔTEL DU PARC MONTSOURIS,14,Observatoire,3,35,48.822362,2.334543
HÔTEL IBIS BUDGET PARIS PORTE D’ORLÉANS,14,Observatoire,2,171,48.819868,2.325268
HÔTEL DE LA LOIRE,14,Observatoire,2,18,48.830199,2.322148
HÔTEL LE CLOS D'ALÉSIA,14,Observatoire,3,26,48.826143,2.324421
TIPI  HÔTEL,14,Observatoire,2,33,48.835472,2.325352
HÔTEL APOLLON MONTPARNASSE,14,Observatoire,3,33,48.834786,2.317017
HOTEL RESTAURANT LE MYOSOTIS,14,Observatoire,2,15,48.826767,2.332434
HÔTEL LENOX MONTPARNASSE,14,Observatoire,3,52,48.841581,2.32778
HÔTEL DE LA PAIX,14,Observatoire,3,39,48.840092,2.330583
HÔTEL AVIATIC,14,Observatoire,1,31,48.83112,2.328445
HÔTEL TERMINUS ORLÉANS,14,Observatoire,2,67,48.823593,2.324743
HÔTEL BEST WESTERN NOUVEL ORLÉANS,14,Observatoire,4,42,48.831038,2.32992
HÔTEL CAMPANILE MAINE MONTPARNASSE,14,Observatoire,3,91,48.834378,2.323944
OASIS MONTPARNASSE HÔTEL,14,Observatoire,2,11,48.833732,2.317863
HÔTEL MONTPARNASSE DAGUERRE,14,Observatoire,3,30,48.836034,2.324158
FRED HÔTEL,14,Observatoire,3,36,48.83221,2.316373
HÔTEL TRANSCONTINENTAL,14,Observatoire,2,40,48.833507,2.324814
HÔTEL DU MOULIN VERT,14,Observatoire,2,28,48.831458,2.319709
LA MAISON MONTPARNASSE,14,Observatoire,2,36,48.832541,2.316911
HÔTEL HELZEAR MONTPARNASSE RIVE GAUCHE,14,Observatoire,4,14,48.83459,2.325441
HÔTEL IBIS STYLES PARIS ALÉSIA MONTPARNASSE,14,Observatoire,3,47,48.830452,2.323547
HÔTEL PULLMAN PARIS MONTPARNASSE,14,Observatoire,4,957,48.83854,2.320327
HÔTEL MERCURE PARIS GARE MONTPARNASSE,14,Observatoire,4,185,48.839818,2.323587
PARC HÔTEL PARIS,14,Observatoire,3,24,48.824669,2.326796
HÔTEL AGENOR,14,Observatoire,3,19,48.836825,2.323979
HÔTEL MERCURE PARIS MONTPARNASSE RASPAIL,14,Observatoire,4,63,48.841205,2.330156
HÔTEL IBIS PARIS MAINE MONTPARNASSE,14,Observatoire,3,102,48.83376,2.322964
HÔTEL BOB,14,Observatoire,4,45,48.833464,2.319047
HÔTEL DE L'ORCHIDÉE,14,Observatoire,3,41,48.835804,2.318862
HÔTEL ACROPOLE,14,Observatoire,3,43,48.823394,2.325103
HÔTEL ATELIER MONTPARNASSE,14,Observatoire,3,40,48.833362,2.31691
HÔTEL MERCURE PARIS PLAZA PONT MIRABEAU,15,Vaugirard,4,49,48.846089,2.278845
HÔTEL EIFFEL SEGUR,15,Vaugirard,3,33,48.846693,2.304981
HÔTEL KORNER MONTPARNASSE,15,Vaugirard,2,27,48.841227,2.313459
HÔTEL AU PACIFIC,15,Vaugirard,2,56,48.848677,2.291863
HÔTEL SPLENDID,15,Vaugirard,2,41,48.846835,2.296297
HÔTEL EIFFEL CAPITOL,15,Vaugirard,3,42,48.850495,2.291556
HÔTEL LE CARROSSE,15,Vaugirard,1,12,48.834829,2.284484
HÔTEL ALIZÉ GRENELLE TOUR EIFFEL,15,Vaugirard,3,50,48.846735,2.287725
HÔTEL AMIRAL FONDARY,15,Vaugirard,3,20,48.847801,2.293784
HÔTEL AVIA SAPHIR MONTPARNASSE,15,Vaugirard,3,40,48.843022,2.313163
HÔTEL IBIS PARIS GARE MONTPARNASSE,15,Vaugirard,3,31,48.840394,2.315458
HÔTEL LE BAILLI DE SUFREN,15,Vaugirard,3,25,48.846966,2.308013
HÔTEL HOME MODERNE,15,Vaugirard,3,63,48.832797,2.30367
HÔTEL MERCURE PARIS 15 PORTE DE VERSAILLES,15,Vaugirard,4,54,48.838389,2.290559
ABEROTEL MONTPARNASSE,15,Vaugirard,3,28,48.843263,2.307133
HÔTEL RELAIS SAINT CHARLES,15,Vaugirard,3,38,48.850294,2.293322
HÔTEL MÉDIAN PORTE DE VERSAILLES,15,Vaugirard,3,128,48.836649,2.276697
HÔTEL AJIEL,15,Vaugirard,3,60,48.835752,2.301936
TIMHOTEL GARE MONTPARNASSE,15,Vaugirard,3,77,48.842905,2.321213
HÔTEL IBIS PARIS TOUR MONTPARNASSE,15,Vaugirard,3,45,48.843465,2.320269
HÔTEL IBIS PARIS TOUR EIFFEL CAMBRONNE,15,Vaugirard,3,527,48.846887,2.301156
NOVOTEL PARIS VAUGIRARD MONTPARNASSE,15,Vaugirard,4,187,48.840112,2.303605
HÔTEL DÉLOS VAUGIRARD,15,Vaugirard,3,41,48.84131,2.302783
HÔTEL EIFFEL VILLA GARIBALDI,15,Vaugirard,3,23,48.846447,2.305838
HÔTEL AVENIR VAUGIRARD,15,Vaugirard,2,42,48.836326,2.294701
HÔTEL AUGUSTE,15,Vaugirard,3,23,48.837849,2.296173
HÔTEL CLARISSE,15,Vaugirard,2,27,48.82896,2.300522
HÔTEL PRINTANIA PORTE DE VERSAILLES,15,Vaugirard,2,21,48.834068,2.295377
HÔTEL AURIANE PORTE DE VERSAILLES,15,Vaugirard,3,32,48.83409,2.295174
HÔTEL CAMÉLIA,15,Vaugirard,2,24,48.842503,2.312479
HÔTEL VIC EIFFEL,15,Vaugirard,3,30,48.845297,2.309932
HÔTEL MIRAMAR,15,Vaugirard,3,37,48.842298,2.320259
HÔTEL MIRABEAU EIFFEL,15,Vaugirard,3,29,48.844071,2.27967
HÔTEL DE LA PAIX,15,Vaugirard,3,37,48.838715,2.288705
HÔTEL NOVOTEL PARIS GARE MONTPARNASSE,15,Vaugirard,4,199,48.838613,2.314679
HÔTEL LE MEDITEL,15,Vaugirard,3,49,48.842369,2.312714
HÔTEL FRANCE EIFFEL,15,Vaugirard,3,37,48.851557,2.289693
ART HOTEL EIFFEL,15,Vaugirard,3,36,48.848717,2.298325
HÔTEL CAMPANILE PARIS 15 TOUR EIFFEL,15,Vaugirard,2,76,48.850429,2.288774
HÔTEL EIFFEL DU PETIT LOUVRE,15,Vaugirard,3,52,48.850475,2.292315
HÔTEL SUBLIM EIFFEL,15,Vaugirard,3,19,48.84525,2.310102
PLATINE HÔTEL PARIS,15,Vaugirard,4,46,48.847394,2.283433
HÔTEL EIFFEL SEINE,15,Vaugirard,3,45,48.854359,2.289265
HÔTEL BEST WESTERN EIFFEL CAMBRONNE,15,Vaugirard,3,31,48.845828,2.298393
HÔTEL ALYSS SAPHIR CAMBRONNE EIFFEL,15,Vaugirard,3,30,48.845079,2.297339
TOURISME HÔTEL,15,Vaugirard,3,55,48.849505,2.29817
HÔTEL PULLMAN PARIS TOUR EIFFEL,15,Vaugirard,4,430,48.855865,2.293285
HÔTEL MERCURE PARIS PORTE DE VERSAILLES VAUGIRARD,15,Vaugirard,4,91,48.833065,2.287962
BEAUGRENELLE SAINT-CHARLES HÔTEL,15,Vaugirard,3,50,48.847211,2.285923
HÔTEL CONVENTION MONTPARNASSE,15,Vaugirard,3,37,48.837222,2.297133
TERMINUS VAUGIRARD,15,Vaugirard,3,89,48.833118,2.289212
HÔTEL EDEN,15,Vaugirard,4,37,48.840511,2.29912
HÔTEL SAPHIR GRENELLE,15,Vaugirard,3,32,48.848403,2.297026
HÔTEL TROYON,15,Vaugirard,2,33,48.835714,2.305832
HÔTEL EIFFEL SAINT CHARLES,15,Vaugirard,3,33,48.849841,2.288436
HÔTEL BEST WESTERN SÈVRES MONTPARNASSE,15,Vaugirard,4,29,48.843756,2.315568
HÔTEL MERCURE PARIS TOUR EIFFEL GRENELLE,15,Vaugirard,4,77,48.850506,2.292657
HÔTEL EIFFEL XV,15,Vaugirard,2,42,48.85034,2.290703
HÔTEL GRENELLE,15,Vaugirard,3,56,48.848561,2.298817
MERCURE PARIS CENTRE TOUR EIFFEL,15,Vaugirard,4,405,48.855412,2.292211
TIMHOTEL TOUR EIFFEL,15,Vaugirard,3,39,48.850164,2.292327
HÔTEL DE L'EXPOSITION TOUR EIFFEL,15,Vaugirard,3,36,48.848809,2.288121
HÔTEL CARINA,15,Vaugirard,3,29,48.848018,2.287157
HÔTEL LE PARISIS PARIS TOUR EIFFEL,15,Vaugirard,4,45,48.849575,2.295575
NOVOTEL PARIS CENTRE TOUR EIFFEL,15,Vaugirard,4,764,48.850094,2.283316
HÔTEL BEAUGRENELLE TOUR EIFFEL,15,Vaugirard,3,47,48.850275,2.290433
FIRST HÔTEL,15,Vaugirard,4,43,48.847519,2.302217
HÔTEL LE MARQUIS EIFFEL,15,Vaugirard,4,36,48.851663,2.297824
HÔTEL LECOURBE,15,Vaugirard,3,47,48.844502,2.308767
HÔTEL INNOVA,15,Vaugirard,2,51,48.842178,2.312737
HÔTEL YLLEN EIFFEL,15,Vaugirard,3,38,48.841501,2.307704
HÔTEL ARES EIFFEL,15,Vaugirard,4,40,48.850374,2.298221
HÔTEL IBIS STYLES PARIS EIFFEL CAMBRONNE,15,Vaugirard,3,50,48.847997,2.300644
HÔTEL LILAS BLANC,15,Vaugirard,2,32,48.848326,2.298284
QUALITY HÔTEL ABACA MESSIDOR,15,Vaugirard,3,70,48.836849,2.295497
PORTE DE VERSAILLES HÔTEL,15,Vaugirard,3,35,48.835141,2.282514
HÔTEL VAL GIRARD,15,Vaugirard,3,38,48.8408,2.299285
LUTÈCE HÔTEL,15,Vaugirard,2,37,48.835785,2.292332
HÔTEL DE L'AVRE,15,Vaugirard,3,26,48.847822,2.297636
HÔTEL HOLIDAY INN PARIS MONTPARNASSE PASTEUR,15,Vaugirard,4,60,48.837663,2.306326
HÔTEL IBIS STYLES PARIS 15 LECOURBE,15,Vaugirard,3,49,48.838835,2.289504
HÔTEL IBIS PARIS PORTE DE BRANCION PARC DES EXPOSITIONS 15E,15,Vaugirard,3,69,48.830331,2.302044
HÔTEL DU PARC SAINT CHARLES,15,Vaugirard,2,15,48.837218,2.277495
HÔTEL KORNER EIFFEL,15,Vaugirard,2,35,48.846579,2.288572
HÔTEL PRINTEMPS,15,Vaugirard,1,51,48.847538,2.296444
BEST WESTERN HÔTEL MONTCALM,15,Vaugirard,3,41,48.840896,2.287107
EUROPE HÔTEL PARIS,15,Vaugirard,3,37,48.849584,2.296963
HÔTEL IBIS PARIS CONVENTION 15ÈME,15,Vaugirard,3,48,48.835887,2.294978
HÔTEL AMIRAL,15,Vaugirard,2,30,48.841313,2.300979
NOUVEL HÔTEL EIFFEL,15,Vaugirard,3,36,48.843348,2.306748
VICE VERSA HÔTEL,15,Vaugirard,4,37,48.836374,2.2897
HÔTEL GUSTAVE,15,Vaugirard,4,32,48.850126,2.289063
HÔTEL CARLADEZ CAMBRONNE,15,Vaugirard,3,28,48.842096,2.303207
HÔTEL CACTUS,15,Vaugirard,2,32,48.839739,2.309344
HÔTEL BEST WESTERN AU TROCADERO,16,Passy,3,27,48.863779,2.286667
HÔTEL LE BELMONT,16,Passy,4,74,48.869351,2.297842
HÔTEL WALDORF TROCADÉRO,16,Passy,4,44,48.867234,2.287925
HÔTEL VICTOR HUGO PARIS KLÉBER,16,Passy,4,75,48.86913,2.289219
HÔTEL RÉSIDENCE FOCH,16,Passy,3,25,48.874234,2.2811
LE SINGULIER,16,Passy,3,8,48.866599,2.285315
HÔTEL WINDSOR HOME PARIS,16,Passy,3,8,48.860478,2.280048
VILLA DES AMBASSADEURS,16,Passy,3,17,48.865294,2.290509
JAYS PARIS,16,Passy,4,5,48.869062,2.290829
HÔTEL FÉLICIEN,16,Passy,4,34,48.849317,2.274273
HÔTEL RAPHAËL,16,Passy,5,83,48.871375,2.293574
L'HÔTEL PERGOLÈSE PARIS,16,Passy,4,40,48.875741,2.286338
HÔTEL DU BOIS,16,Passy,3,39,48.871741,2.290938
BEST WESTERN EIFFEL AUTEUIL,16,Passy,3,51,48.839389,2.263194
HÔTEL HOLIDAY INN PARIS AUTEUIL,16,Passy,3,46,48.837997,2.258497
HÔTEL KEPPLER,16,Passy,4,39,48.86985,2.297266
HÔTEL PLAZA TOUR EIFFEL,16,Passy,4,41,48.864486,2.282291
HÔTEL KLEBER CHAMPS ÉLYSÉES TOUR EIFFEL PARIS,16,Passy,3,23,48.868751,2.292095
HÔTEL MELIA PARIS CHAMPS-ELYSÉES,16,Passy,4,61,48.868761,2.282873
THE PENINSULA PARIS,16,Passy,5,200,48.871009,2.293316
HÔTEL SQUARE,16,Passy,5,22,48.851589,2.277727
HÔTEL MURAT,16,Passy,3,28,48.837407,2.258737
HÔTEL MONTFLEURI ARC DE TRIOMPHE,16,Passy,4,42,48.874794,2.290718
HÔTEL MOLITOR,16,Passy,5,124,48.844723,2.2523
HÔTEL D'ANGLETERRE ÉTOILE,16,Passy,2,29,48.869155,2.289009
TROCADÉRO LA TOUR BEST WESTERN PREMIER,16,Passy,4,41,48.858322,2.279488
HÔTEL AUTEUIL TOUR EIFFEL,16,Passy,4,94,48.85055,2.275279
HÔTEL AÉRO,16,Passy,3,14,48.857608,2.277921
HÔTEL MAISON FL,16,Passy,4,62,48.858831,2.284017
HÔTEL POUSSIN,16,Passy,3,27,48.848557,2.261219
RADISSON BLU LE MÉTROPOLITAN,16,Passy,4,48,48.8656,2.283401
MARCEAU CHAMPS ÉLYSÉES,16,Passy,3,35,48.86814,2.298751
QUEEN'S,16,Passy,3,17,48.848578,2.266168
HÔTEL ÉLYSÉES UNION,16,Passy,3,63,48.868347,2.291813
HÔTEL NICOLO,16,Passy,2,27,48.858179,2.280643
HÔTEL VILLA GLAMOUR,16,Passy,3,11,48.864554,2.277974
HÔTEL MAJESTIC VILLA & SPA,16,Passy,5,48,48.870346,2.293853
LE HAMEAU DE PASSY,16,Passy,2,32,48.857811,2.279801
HÔTEL EXELMANS,16,Passy,2,48,48.841399,2.262634
HÔTEL FLORIDE ÉTOILE,16,Passy,3,60,48.866253,2.287867
HÔTEL ÉLYSÉES REGENCIA,16,Passy,4,43,48.868663,2.298541
HÔTEL LA VILLA MAILLOT & SPA,16,Passy,4,42,48.875566,2.283657
HÔTEL RÉSIDENCE IMPERIALE,16,Passy,3,37,48.87618,2.283503
HÔTEL EIFFEL TROCADÉRO,16,Passy,4,17,48.861285,2.286343
HÔTEL GARDEN ÉLYSÉE,16,Passy,4,46,48.866245,2.288096
RADISSON BLU LE DOKHAN'S,16,Passy,5,55,48.866362,2.286743
HÔTEL BEAUSÉJOUR RANELAGH,16,Passy,3,30,48.855611,2.269739
HÔTEL BASSANO,16,Passy,4,33,48.869001,2.297188
HÔTEL ÉLYSÉES BASSANO,16,Passy,4,40,48.869538,2.297948
HÔTEL PASTEL,16,Passy,3,36,48.868338,2.289109
HÔTEL LES HAUTS DE PASSY,16,Passy,3,31,48.857229,2.278317
HÔTEL ROYAL ÉLYSÉES,16,Passy,4,35,48.872911,2.292671
HÔTEL RENAISSANCE LE PARC TROCADERO,16,Passy,5,122,48.867291,2.285769
HÔTEL PALAIS DE CHAILLOT,16,Passy,3,31,48.865761,2.286156
HÔTEL GAVARNI,16,Passy,3,25,48.858682,2.282736
HÔTEL HELZEAR CHAMPS-ELYSÉES,16,Passy,4,27,48.869169,2.298245
HÔTEL MERCURE PARIS CHAMPS ÉLYSÉES,16,Passy,4,46,48.870032,2.290857
HÔTEL LONGCHAMP ÉLYSÉES,16,Passy,3,19,48.865251,2.285654
MONHÔTEL LOUNGE & SPA,16,Passy,4,50,48.874308,2.289703
HÔTEL CHAMBELLAN MORGANE,16,Passy,3,20,48.869739,2.297444
SHANGRI-LA HÔTEL PARIS,16,Passy,5,101,48.863773,2.293222
HÔTEL DE SÉVIGNÉ,16,Passy,3,30,48.868799,2.292423
HÔTEL EIFFEL KENNEDY,16,Passy,3,30,48.852999,2.275899
HÔTEL BOILEAU,16,Passy,3,31,48.840748,2.262406
HÔTEL DURET,16,Passy,4,27,48.875273,2.286576
HÔTEL JEAN GABRIEL MONTMARTRE,17,Batignolles-Monceau,3,28,48.884003,2.325378
HÔTEL BEST WESTERN STAR CHAMPS ELYSEES,17,Batignolles-Monceau,3,62,48.877154,2.293621
HÔTEL RÉSIDENCE VILLIERS,17,Batignolles-Monceau,2,30,48.883828,2.305419
LE CHAMPERRET HÉLIOPOLIS,17,Batignolles-Monceau,3,22,48.885106,2.293676
HÔTEL DES DEUX AVENUES,17,Batignolles-Monceau,3,38,48.879882,2.298683
HÔTEL LE MAGELLAN,17,Batignolles-Monceau,3,72,48.88336,2.29246
HÔTEL REGENT S GARDEN,17,Batignolles-Monceau,4,40,48.879889,2.291832
HÔTEL MONCEAU WAGRAM,17,Batignolles-Monceau,4,25,48.8809,2.298983
HÔTEL DARCET,17,Batignolles-Monceau,2,32,48.883451,2.325279
HÔTEL NATION MONTMARTRE,17,Batignolles-Monceau,1,32,48.876167,2.296258
HÔTEL SPLENDOR,17,Batignolles-Monceau,3,24,48.882277,2.305019
HÔTEL ÉLYSÉES FLAUBERT,17,Batignolles-Monceau,3,40,48.88149,2.298185
HÔTEL DE CABOURG,17,Batignolles-Monceau,2,36,48.883064,2.323042
HÔTEL FLORIDOR ÉTOILE,17,Batignolles-Monceau,2,31,48.878534,2.293925
BEST WESTERN EMPIRE ÉLYSÉES,17,Batignolles-Monceau,3,44,48.877925,2.295512
HÔTEL LE 10BIS,17,Batignolles-Monceau,4,23,48.878012,2.286502
121 PARIS HÔTEL,17,Batignolles-Monceau,3,31,48.889967,2.321005
HÔTEL MERCURE PARIS ARC DE TRIOMPHE WAGRAM,17,Batignolles-Monceau,4,43,48.87607,2.296168
HÔTEL MEDIAN PARIS CONGRÈS,17,Batignolles-Monceau,3,170,48.896194,2.308335
AC HÔTEL PARIS PORTE MAILLOT,17,Batignolles-Monceau,4,149,48.882081,2.282141
HÔTEL WESTSIDE ARC DE TRIOMPHE,17,Batignolles-Monceau,4,44,48.881258,2.294738
VILLA ALESSANDRA,17,Batignolles-Monceau,4,49,48.87938,2.295986
HÔTEL ÉTOILE PARK,17,Batignolles-Monceau,3,28,48.876095,2.294904
HÔTEL AMBASSADEUR,17,Batignolles-Monceau,3,85,48.890646,2.324591
HÔTEL L'ADRESSE,17,Batignolles-Monceau,4,23,48.878004,2.285324
HÔTEL JARDIN DE VILLIERS,17,Batignolles-Monceau,3,26,48.884047,2.314992
HÔTEL COSY MOCEAU,17,Batignolles-Monceau,2,18,48.886131,2.310423
HÔTEL MERCURE PARIS ARC DE TRIOMPHE ÉTOILE,17,Batignolles-Monceau,4,54,48.878295,2.294975
HÔTEL ARC DE TRIOMPHE ÉTOILE,17,Batignolles-Monceau,3,27,48.87654,2.296404
HÔTEL DES PAVILLONS,17,Batignolles-Monceau,2,27,48.876401,2.290601
HÔTEL ACACIAS ÉTOILE,17,Batignolles-Monceau,3,36,48.876598,2.290786
HÔTEL B SQUARE,17,Batignolles-Monceau,3,32,48.883803,2.322611
HÔTEL RIVIERA,17,Batignolles-Monceau,3,21,48.878268,2.293947
HÔTEL TILSITT ÉTOILE,17,Batignolles-Monceau,3,38,48.876984,2.29504
HÔTEL PRINCESSE CAROLINE,17,Batignolles-Monceau,3,53,48.875632,2.2957
HÔTEL MÉDÉRIC,17,Batignolles-Monceau,2,28,48.880173,2.30255
HÔTEL HYATT REGENCY PARIS ETOILE,17,Batignolles-Monceau,4,950,48.879983,2.284097
HÔTEL SAINT-CYR ÉTOILE,17,Batignolles-Monceau,3,31,48.88046,2.285555
HÔTEL PARIS LÉCLUSE,17,Batignolles-Monceau,3,20,48.884165,2.325298
HÔTEL LE VILLIERS,17,Batignolles-Monceau,2,26,48.885287,2.293367
HÔTEL ASTRID,17,Batignolles-Monceau,3,40,48.876796,2.292068
HÔTEL FERTEL ÉTOILE,17,Batignolles-Monceau,3,51,48.876114,2.289864
HÔTEL CHAMPERRET ÉLYSÉES,17,Batignolles-Monceau,3,45,48.885211,2.293968
HÔTEL MERCURE PARIS SAINT-LAZARE MONCEAU,17,Batignolles-Monceau,4,51,48.883829,2.318524
HÔTEL CENTRE VILLE ÉTOILE,17,Batignolles-Monceau,3,15,48.876151,2.289966
HÔTEL MAGDA CHAMPS ELYSEES,17,Batignolles-Monceau,3,37,48.875999,2.295266
HÔTEL LE MÉRIDIEN ÉTOILE,17,Batignolles-Monceau,4,1025,48.879465,2.284955
HÔTEL GASTON,17,Batignolles-Monceau,3,43,48.887492,2.307959
HÔTEL ÉTOILE SAINT FERDINAND,17,Batignolles-Monceau,4,42,48.877742,2.287311
HÔTEL MIRIFIC,17,Batignolles-Monceau,3,65,48.889902,2.321115
HÔTEL TIMHOTEL PARIS XVII,17,Batignolles-Monceau,3,252,48.894224,2.312493
HÔTEL MONCEAU ÉTOILE,17,Batignolles-Monceau,3,28,48.88406,2.313252
HÔTEL PRINCE MONCEAU,17,Batignolles-Monceau,3,26,48.886797,2.313792
HÔTEL COURCELLES ÉTOILE,17,Batignolles-Monceau,3,40,48.884449,2.297979
HÔTEL IBIS PARIS 17 CLICHY-BATIGNOLLES,17,Batignolles-Monceau,3,688,48.891923,2.315728
HÔTEL DE PARIS MONTMARTRE,17,Batignolles-Monceau,2,30,48.884541,2.325842
HÔTEL BEAUSÉJOUR MONTMARTRE,17,Batignolles-Monceau,4,36,48.88367,2.325716
HÔTEL RÉSIDENCE DES DEUX SQUARES,17,Batignolles-Monceau,1,47,48.89335,2.325197
HÔTEL DU MONT DORE,17,Batignolles-Monceau,3,25,48.883712,2.322734
HÔTEL BERTHA,17,Batignolles-Monceau,1,28,48.883336,2.325179
HÔTEL EXCELSIOR BATIGNOLLES,17,Batignolles-Monceau,3,23,48.883581,2.323571
HÔTEL BALMORAL,17,Batignolles-Monceau,4,50,48.876021,2.293878
HÔTEL TIVOLI,17,Batignolles-Monceau,3,30,48.87621,2.295996
HÔTEL CÉCILIA,17,Batignolles-Monceau,3,49,48.875856,2.294411
HÔTEL STELLA,17,Batignolles-Monceau,3,35,48.876324,2.293123
HÔTEL AMPERE,17,Batignolles-Monceau,4,97,48.884785,2.299674
HÔTEL LE TRENTE,17,Batignolles-Monceau,3,31,48.888265,2.319646
HÔTEL CHAMPS ÉLYSÉES MAC MAHON,17,Batignolles-Monceau,5,40,48.87545,2.294484
L'EDMOND HÔTEL,17,Batignolles-Monceau,4,23,48.882179,2.313192
PHENIX HÔTEL,17,Batignolles-Monceau,2,34,48.876164,2.293816
HÔTEL NOVOTEL PARIS 17 PORTE D'ASNIÈRES,17,Batignolles-Monceau,4,140,48.891785,2.302006
HÔTEL DE BANVILLE,17,Batignolles-Monceau,4,38,48.886411,2.294925
HÔTEL ABRIAL,17,Batignolles-Monceau,3,80,48.890477,2.31749
HÔTEL PRINCE ALBERT WAGRAM,17,Batignolles-Monceau,3,33,48.886504,2.312332
HÔTEL AMARANTE ARC DE TRIOMPHE,17,Batignolles-Monceau,4,50,48.882812,2.298166
HÔTEL WAGRAM,17,Batignolles-Monceau,1,18,48.878714,2.29603
HÔTEL LE MIREILLE,17,Batignolles-Monceau,3,31,48.891289,2.324588
HÔTEL BEST WESTERN OPÉRA BATIGNOLLES,17,Batignolles-Monceau,4,44,48.887118,2.314405
HÔTEL PAVILLON MONCEAU,17,Batignolles-Monceau,3,42,48.885339,2.307925
HÔTEL SPLENDID ÉTOILE,17,Batignolles-Monceau,4,57,48.874845,2.293983
HÔTEL LES JARDINS DE LA VILLA,17,Batignolles-Monceau,4,33,48.880213,2.28594
HÔTEL ÉTOILE PEREIRE,17,Batignolles-Monceau,3,26,48.883538,2.294099
VILLA EUGÉNIE,17,Batignolles-Monceau,4,41,48.887173,2.314262
VILLA BRUNEL,17,Batignolles-Monceau,3,32,48.87922,2.287614
HÔTEL BELFAST,17,Batignolles-Monceau,4,54,48.875596,2.293737
LE TSUBA HÔTEL,17,Batignolles-Monceau,4,82,48.877739,2.293232
HÔTEL NEVA,17,Batignolles-Monceau,3,31,48.876529,2.295811
HÔTEL LA VILLA DES TERNES,17,Batignolles-Monceau,4,39,48.88039,2.28586
HÔTEL ROYAL WAGRAM,17,Batignolles-Monceau,2,23,48.883606,2.296055
PAVILLON VILLIERS ÉTOILE,17,Batignolles-Monceau,3,55,48.883606,2.316285
HÔTEL BEST WESTERN DE NEUVILLE,17,Batignolles-Monceau,4,28,48.88689,2.300473
HÔTEL PLAZA ÉTOILE,17,Batignolles-Monceau,3,33,48.876066,2.296409
ART HÔTEL BATIGNOLLES,17,Batignolles-Monceau,3,29,48.888003,2.32097
ART HÔTEL CONGRES,17,Batignolles-Monceau,3,41,48.89292,2.321568
HÔTEL MÉRIDIONAL,17,Batignolles-Monceau,3,37,48.890003,2.323266
HÔTEL DE LA FÉLICITÉ,17,Batignolles-Monceau,3,23,48.887569,2.311066
HÔTEL PARIS LEGENDRE,17,Batignolles-Monceau,2,32,48.890416,2.324294
HÔTEL DES BATIGNOLLES,17,Batignolles-Monceau,3,46,48.884933,2.321081
HÔTEL ELYSÉE ETOILE,17,Batignolles-Monceau,2,18,48.876629,2.296274
HÔTEL ARMONI,17,Batignolles-Monceau,3,45,48.88515,2.293043
HÔTEL NIEL,17,Batignolles-Monceau,3,38,48.879624,2.296123
HÔTEL FERTEL MAILLOT,17,Batignolles-Monceau,3,35,48.878157,2.285241
HÔTEL HIDDEN,17,Batignolles-Monceau,4,35,48.877528,2.293417
HÔTEL HARVEY,17,Batignolles-Monceau,3,32,48.877882,2.286581
HÔTEL REGYN'S MONTMARTRE,18,Buttes-Montmartre,2,22,48.884624,2.338153
HÔTEL LUXIA,18,Buttes-Montmartre,2,45,48.883725,2.34486
HÔTEL DU MOULIN,18,Buttes-Montmartre,2,27,48.885324,2.335092
HIPOTEL PARIS MONTMARTRE GARE DU NORD,18,Buttes-Montmartre,2,34,48.895225,2.347884
TIMHOTEL MONTMARTRE,18,Buttes-Montmartre,3,59,48.885761,2.338034
HÔTEL BORONALI,18,Buttes-Montmartre,3,36,48.888669,2.34796
HÔTEL MERRYL,18,Buttes-Montmartre,2,35,48.88541,2.360551
HÔTEL PAX,18,Buttes-Montmartre,2,35,48.886046,2.350052
HÔTEL MERCURE PARIS MONTMARTRE,18,Buttes-Montmartre,4,305,48.884999,2.329905
HÔTEL LE RELAIS MONTMARTRE,18,Buttes-Montmartre,4,26,48.885409,2.333546
HÔTEL IBIS PARIS MONTMARTRE,18,Buttes-Montmartre,3,326,48.885122,2.330046
HÔTEL LE MONTMARTRE SAINT-PIERRE,18,Buttes-Montmartre,3,48,48.88445,2.347265
HÔTEL AUDRAN,18,Buttes-Montmartre,2,39,48.885299,2.335957
BEST WESTERN MONTMARTRE,18,Buttes-Montmartre,4,49,48.888631,2.349805
ANDRÉ GILL,18,Buttes-Montmartre,2,31,48.882797,2.340051
HÔTEL KYRIAD PARIS 18 - PORTE DE CLIGNANCOURT - MONTMARTRE,18,Buttes-Montmartre,3,62,48.897035,2.345379
HÔTEL DE BELLEVUE,18,Buttes-Montmartre,3,38,48.88666,2.360933
HÔTEL DES ARTS,18,Buttes-Montmartre,3,50,48.8862,2.335235
HÔTEL IBIS PARIS ORNANO MONTMARTRE NORD,18,Buttes-Montmartre,3,86,48.896638,2.345705
HÔTEL MONTMARTRE,18,Buttes-Montmartre,1,30,48.883961,2.347167
IBIS STYLES PARIS MONTMARTRE NORD,18,Buttes-Montmartre,3,46,48.895253,2.340919
HÔTEL LE GRILLON DOUDEAUVILLE,18,Buttes-Montmartre,1,25,48.888313,2.34887
HÔTEL IBIS PARIS SACRÉ COEUR,18,Buttes-Montmartre,3,68,48.882566,2.341519
HOLIDAY INN PARIS MONTMARTRE,18,Buttes-Montmartre,4,54,48.888876,2.333177
HÔTEL MONTMARTROIS,18,Buttes-Montmartre,2,89,48.887466,2.346395
HÔTEL ROMA SACRÉ-COEUR,18,Buttes-Montmartre,2,54,48.889724,2.338737
HÔTEL DE FLORE,18,Buttes-Montmartre,3,43,48.890493,2.335217
HÔTEL KUBE PARIS,18,Buttes-Montmartre,4,40,48.88666,2.358647
PAVILLON DE MONTMARTRE,18,Buttes-Montmartre,3,30,48.885386,2.335147
THE MODERN HÔTEL MONTMARTRE,18,Buttes-Montmartre,2,37,48.884988,2.329304
HÔTEL LE SQUARA,18,Buttes-Montmartre,4,19,48.884137,2.332919
HÔTEL REGINA,18,Buttes-Montmartre,3,19,48.882691,2.342154
HÔTEL BASSS,18,Buttes-Montmartre,3,36,48.885493,2.335629
HÔTEL BEST WESTERN PLUS LE 18 PARIS,18,Buttes-Montmartre,4,49,48.896569,2.343629
COMFORT HÔTEL LAMARCK,18,Buttes-Montmartre,3,67,48.891199,2.338985
HÔTEL MONTMARTRE MON AMOUR,18,Buttes-Montmartre,4,24,48.886675,2.345003
DÉCLIC HÔTEL,18,Buttes-Montmartre,4,26,48.890763,2.338048
LE TERRASS HÔTEL,18,Buttes-Montmartre,4,92,48.886523,2.332955
LES JARDINS DE MONTMARTRE,18,Buttes-Montmartre,3,38,48.892883,2.341046
CHAT NOIR DESIGN HÔTEL,18,Buttes-Montmartre,4,39,48.883568,2.334099
HÔTEL SUITE NOVOTEL PARIS LA CHAPELLE,18,Buttes-Montmartre,4,187,48.90162,2.359719
HÔTEL 29 LEPIC,18,Buttes-Montmartre,3,41,48.885609,2.334419
HÔTEL HIPPODROME MONTMARTRE,18,Buttes-Montmartre,2,18,48.885242,2.329235
BEST WESTERN PRINCE MONTMARTRE,18,Buttes-Montmartre,3,31,48.893262,2.339769
HÔTEL IBIS BUDGET PARIS PORTE DE LA CHAPELLE,18,Buttes-Montmartre,2,213,48.901487,2.362131
HÔTEL EDEN MONTMARTRE,18,Buttes-Montmartre,3,35,48.892839,2.342836
HÔTEL BELLEVUE,18,Buttes-Montmartre,3,36,48.883943,2.345018
NOUVEAU PARIS PARK HÔTEL,19,Buttes-Chaumont,3,29,48.878353,2.384188
HÔTEL DE LA PERDRIX ROUGE,19,Buttes-Chaumont,2,29,48.875328,2.389008
HÔTEL RELAIS BERGSON,19,Buttes-Chaumont,2,20,48.880471,2.374279
HÔTEL DU QUAI DE SEINE,19,Buttes-Chaumont,2,30,48.887247,2.373234
HÔTEL LE CANAL,19,Buttes-Chaumont,3,36,48.887215,2.372936
HÔTEL DES BUTTES CHAUMONT,19,Buttes-Chaumont,2,19,48.882169,2.370818
HÔTEL HOLIDAY INN EXPRESS PARIS CANAL DE LA VILLETTE,19,Buttes-Chaumont,3,144,48.888385,2.378144
HÔTEL BALLADINS LA VILLETTE,19,Buttes-Chaumont,3,39,48.892502,2.374526
IBIS STYLES PARIS BUTTES-CHAUMONT,19,Buttes-Chaumont,3,54,48.884584,2.379351
HÔTEL ABRICOTEL,19,Buttes-Chaumont,2,39,48.883243,2.373723
HÔTEL PARIS VILLETTE,19,Buttes-Chaumont,2,44,48.89305,2.373077
HÔTEL IBIS PARIS LA VILLETTE CITE DES SCIENCES,19,Buttes-Chaumont,3,284,48.89201,2.385209
HÔTEL B&B PARIS PORTE DES LILAS,19,Buttes-Chaumont,2,265,48.879991,2.408072
HÔTEL LIBERTEL CANAL SAINT-MARTIN,19,Buttes-Chaumont,3,69,48.882304,2.371052
REIMS HÔTEL,19,Buttes-Chaumont,2,35,48.885872,2.366254
HÔTEL B&B PARIS PORTE DE LA VILLETTE,19,Buttes-Chaumont,2,162,48.901611,2.387185
HÔTEL IBIS BUDGET PARIS LA VILLETTE,19,Buttes-Chaumont,2,292,48.884373,2.37613
HÔTEL MERCURE PARIS LA VILLETTE,19,Buttes-Chaumont,4,182,48.888837,2.393452
HÔTEL PARIS LA VILLETTE FOREST HILL,19,Buttes-Chaumont,4,250,48.896915,2.385229
HÔTEL CRIMÉE,19,Buttes-Chaumont,3,31,48.891187,2.376343
HÔTEL CAMPANILE PARIS LA VILETTE,19,Buttes-Chaumont,3,208,48.893487,2.380072
HÔTEL TRÉMA,19,Buttes-Chaumont,3,18,48.890954,2.376227
HIPOTEL PARIS BUTTES CHAUMONT PYRÉNÉES,20,Ménilmontant,3,32,48.874256,2.387817
HIPOTEL PARIS PRINTANIA,20,Ménilmontant,2,65,48.853335,2.410225
HÔTEL NADAUD,20,Ménilmontant,2,26,48.865385,2.395075
HÔTEL IBIS PARIS PORTE DE MONTREUIL,20,Ménilmontant,3,175,48.854789,2.415193
HÔTEL LILAS GAMBETTA,20,Ménilmontant,2,34,48.874257,2.405245
HIPOTEL PARIS GAMBETTA,20,Ménilmontant,2,30,48.867501,2.396611
HIPOTEL PARIS BELGRAND,20,Ménilmontant,3,27,48.864502,2.40621
HÔTEL PARIS GAMBETTA,20,Ménilmontant,3,28,48.864097,2.397948
COMFORT HÔTEL DAVOUT NATION,20,Ménilmontant,3,63,48.855461,2.409889
HÔTEL TAMARIS,20,Ménilmontant,3,42,48.84859,2.40792
HÔTEL IBIS STYLES PARIS NATION PORTE DE MONTREUIL,20,Ménilmontant,3,60,48.855085,2.409469
SUPER HÔTEL,20,Ménilmontant,3,31,48.86539,2.398265
HÔTEL SCARLETT,20,Ménilmontant,3,30,48.873217,2.382775
TIMHOTEL NATION,20,Ménilmontant,3,50,48.851512,2.398999
LE PARIS VINGT,20,Ménilmontant,2,35,48.867947,2.400373
HÔTEL LA COMETE PARIS,20,Ménilmontant,3,30,48.848661,2.407906
